[
  {
    "reference": "GB-0001",
    "name": "Cassop Vale National Nature Reserve",
    "latitude": 54.7388,
    "longitude": -1.46958,
    "grid": "IO94gr",
    "locationDesc": "GB-ENG",
    "attempts": 10,
    "activations": 9,
    "qsos": 674
  },
  {
    "reference": "GB-0002",
    "name": "Walton Moss SAC (inc Walton Moss NNR) Conservation Reserve",
    "latitude": 54.9897,
    "longitude": -2.78936,
    "grid": "IO84ox",
    "locationDesc": "GB-ENG",
    "attempts": 6,
    "activations": 4,
    "qsos": 208
  },
  {
    "reference": "GB-0003",
    "name": "North York Moors National Park",
    "latitude": 54.3873,
    "longitude": -0.893067,
    "grid": "IO94nj",
    "locationDesc": "GB-ENG",
    "attempts": 337,
    "activations": 315,
    "qsos": 12938
  },
  {
    "reference": "GB-0004",
    "name": "Snettisham RSPB Reserve",
    "latitude": 52.8682,
    "longitude": 0.451182,
    "grid": "JO02fu",
    "locationDesc": "GB-ENG",
    "attempts": 7,
    "activations": 7,
    "qsos": 410
  },
  {
    "reference": "GB-0005",
    "name": "Ashford Hill National Nature Reserve",
    "latitude": 51.3565,
    "longitude": -1.20083,
    "grid": "IO91ji",
    "locationDesc": "GB-ENG",
    "attempts": 3,
    "activations": 3,
    "qsos": 132
  },
  {
    "reference": "GB-0006",
    "name": "Aston Rowant SAC Conservation Reserve",
    "latitude": 51.6635,
    "longitude": -0.943366,
    "grid": "IO91mp",
    "locationDesc": "GB-ENG",
    "attempts": 19,
    "activations": 15,
    "qsos": 660
  },
  {
    "reference": "GB-0007",
    "name": "Teesmouth & Cleveland Coast SPA - Redcar Coastal Sands and Scars Protected Area",
    "latitude": 54.6177,
    "longitude": -1.05856,
    "grid": "IO94lo",
    "locationDesc": "GB-ENG",
    "attempts": 25,
    "activations": 24,
    "qsos": 1757
  },
  {
    "reference": "GB-0008",
    "name": "Dorset National Landscape",
    "latitude": 50.7116,
    "longitude": -2.55098,
    "grid": "IO80rr",
    "locationDesc": "GB-ENG",
    "attempts": 73,
    "activations": 72,
    "qsos": 4327
  },
  {
    "reference": "GB-0009",
    "name": "Thetford Heath National Nature Reserve",
    "latitude": 52.3865,
    "longitude": 0.711531,
    "grid": "JO02ij",
    "locationDesc": "GB-ENG",
    "attempts": 2,
    "activations": 2,
    "qsos": 293
  },
  {
    "reference": "GB-0010",
    "name": "Dee Estuary SAC/SPA/RAMSAR (and RSPB) (England section only) Protected Area",
    "latitude": 53.2691,
    "longitude": -3.06893,
    "grid": "IO83lg",
    "locationDesc": "GB-ENG",
    "attempts": 20,
    "activations": 19,
    "qsos": 471
  },
  {
    "reference": "GB-0011",
    "name": "Northumbrian Coast SPA - Durham Coast SAC (Whitburn & South Shields) Protected Area",
    "latitude": 54.9687,
    "longitude": -1.363,
    "grid": "IO94hx",
    "locationDesc": "GB-ENG",
    "attempts": 24,
    "activations": 24,
    "qsos": 1930
  },
  {
    "reference": "GB-0012",
    "name": "Knocking Hoe National Nature Reserve",
    "latitude": 51.9634,
    "longitude": -0.354456,
    "grid": "IO91tx",
    "locationDesc": "GB-ENG",
    "attempts": 4,
    "activations": 4,
    "qsos": 268
  },
  {
    "reference": "GB-0013",
    "name": "Dunkery & Horner Woods National Nature Reserve",
    "latitude": 51.167,
    "longitude": -3.62513,
    "grid": "IO81ee",
    "locationDesc": "GB-ENG",
    "attempts": 17,
    "activations": 16,
    "qsos": 808
  },
  {
    "reference": "GB-0014",
    "name": "Chiltern Hills National Landscape",
    "latitude": 51.6557,
    "longitude": -0.851646,
    "grid": "IO91np",
    "locationDesc": "GB-ENG",
    "attempts": 95,
    "activations": 86,
    "qsos": 2931
  },
  {
    "reference": "GB-0015",
    "name": "Thames Basin Heaths SPA - Hawley Common Site of Significant Scientific Interest",
    "latitude": 51.3212,
    "longitude": -0.773176,
    "grid": "IO91oh",
    "locationDesc": "GB-ENG",
    "attempts": 2,
    "activations": 2,
    "qsos": 47
  },
  {
    "reference": "GB-0016",
    "name": "Wyre Forest Natural Area",
    "latitude": 52.3813,
    "longitude": -2.37182,
    "grid": "IO82tj",
    "locationDesc": "GB-ENG",
    "attempts": 6,
    "activations": 5,
    "qsos": 230
  },
  {
    "reference": "GB-0017",
    "name": "Thanet Coast SAC Conservation Reserve",
    "latitude": 51.3885,
    "longitude": 1.36845,
    "grid": "JO01qj",
    "locationDesc": "GB-ENG",
    "attempts": 5,
    "activations": 5,
    "qsos": 226
  },
  {
    "reference": "GB-0018",
    "name": "Redgrave & Lopham Fen National Nature Reserve",
    "latitude": 52.3769,
    "longitude": 1.01346,
    "grid": "JO02mj",
    "locationDesc": "GB-ENG",
    "attempts": 6,
    "activations": 6,
    "qsos": 268
  },
  {
    "reference": "GB-0019",
    "name": "Minsmere-Walberswick SPA - Westleton Heath National Nature Reserve",
    "latitude": 52.2719,
    "longitude": 1.59651,
    "grid": "JO02tg",
    "locationDesc": "GB-ENG",
    "attempts": 8,
    "activations": 8,
    "qsos": 509
  },
  {
    "reference": "GB-0020",
    "name": "Leigh Woods National Nature Reserve",
    "latitude": 51.4556,
    "longitude": -2.63832,
    "grid": "IO81qk",
    "locationDesc": "GB-ENG",
    "attempts": 7,
    "activations": 6,
    "qsos": 185
  },
  {
    "reference": "GB-0021",
    "name": "Skipwith Common National Nature Reserve",
    "latitude": 53.8288,
    "longitude": -1.00678,
    "grid": "IO93lt",
    "locationDesc": "GB-ENG",
    "attempts": 38,
    "activations": 36,
    "qsos": 1680
  },
  {
    "reference": "GB-0022",
    "name": "Langstone Harbour Conservation Reserve",
    "latitude": 50.8353,
    "longitude": -0.980781,
    "grid": "IO90mu",
    "locationDesc": "GB-ENG",
    "attempts": 537,
    "activations": 527,
    "qsos": 33644
  },
  {
    "reference": "GB-0023",
    "name": "Northumbrian Coast SPA - Durham Coast (South) National Nature Reserve",
    "latitude": 54.7878,
    "longitude": -1.31038,
    "grid": "IO94is",
    "locationDesc": "GB-ENG",
    "attempts": 99,
    "activations": 98,
    "qsos": 7424
  },
  {
    "reference": "GB-0024",
    "name": "Marshside RSPB Reserve",
    "latitude": 53.6766,
    "longitude": -2.98218,
    "grid": "IO83mq",
    "locationDesc": "GB-ENG",
    "attempts": 19,
    "activations": 18,
    "qsos": 1089
  },
  {
    "reference": "GB-0025",
    "name": "Cuerden Valley Park Country Park",
    "latitude": 53.7105,
    "longitude": -2.65619,
    "grid": "IO83qr",
    "locationDesc": "GB-ENG",
    "attempts": 28,
    "activations": 26,
    "qsos": 1268
  },
  {
    "reference": "GB-0026",
    "name": "Breckland SPA - Weeting Heath National Nature Reserve",
    "latitude": 52.4625,
    "longitude": 0.585508,
    "grid": "JO02hl",
    "locationDesc": "GB-ENG",
    "attempts": 3,
    "activations": 3,
    "qsos": 90
  },
  {
    "reference": "GB-0027",
    "name": "Broadland SPA - Sutton Fen RSPB Reserve",
    "latitude": 52.7581,
    "longitude": 1.51318,
    "grid": "JO02ss",
    "locationDesc": "GB-ENG",
    "attempts": 1,
    "activations": 1,
    "qsos": 201
  },
  {
    "reference": "GB-0028",
    "name": "Medway Estuary and Marshes SPA Protected Area",
    "latitude": 51.3983,
    "longitude": 0.706864,
    "grid": "JO01ij",
    "locationDesc": "GB-ENG",
    "attempts": 1,
    "activations": 1,
    "qsos": 49
  },
  {
    "reference": "GB-0029",
    "name": "Old Winchester Hill National Nature Reserve",
    "latitude": 50.9806,
    "longitude": -1.08478,
    "grid": "IO90kx",
    "locationDesc": "GB-ENG",
    "attempts": 14,
    "activations": 13,
    "qsos": 661
  },
  {
    "reference": "GB-0030",
    "name": "Moor House National Nature Reserve",
    "latitude": 54.6627,
    "longitude": -2.25393,
    "grid": "IO84up",
    "locationDesc": "GB-ENG",
    "attempts": 18,
    "activations": 18,
    "qsos": 683
  },
  {
    "reference": "GB-0031",
    "name": "Northumbrian Coast SPA/Ramsar - Seaham Harbour & Featherbed Rocks Protected Area",
    "latitude": 54.8416,
    "longitude": -1.33237,
    "grid": "IO94iu",
    "locationDesc": "GB-ENG",
    "attempts": 23,
    "activations": 23,
    "qsos": 1382
  },
  {
    "reference": "GB-0032",
    "name": "Thrislington National Nature Reserve",
    "latitude": 54.6871,
    "longitude": -1.50999,
    "grid": "IO94fq",
    "locationDesc": "GB-ENG",
    "attempts": 6,
    "activations": 6,
    "qsos": 486
  },
  {
    "reference": "GB-0033",
    "name": "Northumbrian Coast SPA - Tynemouth (North) Protected Area",
    "latitude": 55.0171,
    "longitude": -1.41928,
    "grid": "IO95ga",
    "locationDesc": "GB-ENG",
    "attempts": 26,
    "activations": 26,
    "qsos": 1691
  },
  {
    "reference": "GB-0034",
    "name": "Nagshead RSPB Reserve",
    "latitude": 51.7682,
    "longitude": -2.56537,
    "grid": "IO81rs",
    "locationDesc": "GB-ENG",
    "attempts": 3,
    "activations": 3,
    "qsos": 90
  },
  {
    "reference": "GB-0035",
    "name": "Brown Moss SAC Conservation Reserve",
    "latitude": 52.9504,
    "longitude": -2.65365,
    "grid": "IO82qw",
    "locationDesc": "GB-ENG",
    "attempts": 11,
    "activations": 10,
    "qsos": 656
  },
  {
    "reference": "GB-0036",
    "name": "Thames Basin Heaths SPA - Chobham Common National Nature Reserve",
    "latitude": 51.3669,
    "longitude": -0.606147,
    "grid": "IO91qi",
    "locationDesc": "GB-ENG",
    "attempts": 6,
    "activations": 6,
    "qsos": 477
  },
  {
    "reference": "GB-0037",
    "name": "Sutton Park National Nature Reserve",
    "latitude": 52.571,
    "longitude": -1.85731,
    "grid": "IO92bn",
    "locationDesc": "GB-ENG",
    "attempts": 23,
    "activations": 21,
    "qsos": 651
  },
  {
    "reference": "GB-0038",
    "name": "Holme Fen National Nature Reserve",
    "latitude": 52.4914,
    "longitude": -0.234839,
    "grid": "IO92vl",
    "locationDesc": "GB-ENG",
    "attempts": 6,
    "activations": 6,
    "qsos": 203
  },
  {
    "reference": "GB-0039",
    "name": "Solent and Southampton Water - Titchfield Haven National Nature Reserve",
    "latitude": 50.8186,
    "longitude": -1.24249,
    "grid": "IO90jt",
    "locationDesc": "GB-ENG",
    "attempts": 14,
    "activations": 14,
    "qsos": 904
  },
  {
    "reference": "GB-0040",
    "name": "Gait Barrows National Nature Reserve",
    "latitude": 54.1842,
    "longitude": -2.79977,
    "grid": "IO84oe",
    "locationDesc": "GB-ENG",
    "attempts": 4,
    "activations": 4,
    "qsos": 201
  },
  {
    "reference": "GB-0041",
    "name": "Northumbrian Coast SPA - Newbiggin Point Protected Area",
    "latitude": 55.185,
    "longitude": -1.50284,
    "grid": "IO95fe",
    "locationDesc": "GB-ENG",
    "attempts": 6,
    "activations": 6,
    "qsos": 375
  },
  {
    "reference": "GB-0042",
    "name": "Dearne Valley - Wombwell Ings RSPB Reserve",
    "latitude": 53.5233,
    "longitude": -1.36872,
    "grid": "IO93hm",
    "locationDesc": "GB-ENG",
    "attempts": 7,
    "activations": 7,
    "qsos": 240
  },
  {
    "reference": "GB-0043",
    "name": "Broadland SPA - Calthorpe Broad National Nature Reserve",
    "latitude": 52.7762,
    "longitude": 1.57356,
    "grid": "JO02ss",
    "locationDesc": "GB-ENG",
    "attempts": 1,
    "activations": 1,
    "qsos": 14
  },
  {
    "reference": "GB-0044",
    "name": "Rostherne Mere National Nature Reserve",
    "latitude": 53.3544,
    "longitude": -2.38673,
    "grid": "IO83ti",
    "locationDesc": "GB-ENG",
    "attempts": 9,
    "activations": 7,
    "qsos": 284
  },
  {
    "reference": "GB-0045",
    "name": "Fowlmere RSPB Reserve",
    "latitude": 52.0904,
    "longitude": 0.053272,
    "grid": "JO02ac",
    "locationDesc": "GB-ENG",
    "attempts": 10,
    "activations": 7,
    "qsos": 279
  },
  {
    "reference": "GB-0046",
    "name": "Breckland SPA/SAC Protected Area",
    "latitude": 52.4228,
    "longitude": 0.681905,
    "grid": "JO02ik",
    "locationDesc": "GB-ENG",
    "attempts": 33,
    "activations": 29,
    "qsos": 1695
  },
  {
    "reference": "GB-0047",
    "name": "Dorset Heathlands - Studland & Godlingston Heath National Nature Reserve",
    "latitude": 50.6588,
    "longitude": -1.96354,
    "grid": "IO90ap",
    "locationDesc": "GB-ENG",
    "attempts": 10,
    "activations": 9,
    "qsos": 319
  },
  {
    "reference": "GB-0048",
    "name": "Peak District National Park",
    "latitude": 53.2581,
    "longitude": -1.76721,
    "grid": "IO93cg",
    "locationDesc": "GB-ENG",
    "attempts": 248,
    "activations": 218,
    "qsos": 9208
  },
  {
    "reference": "GB-0049",
    "name": "Northumbrian Coast SPA - Blyth North Beach Protected Area",
    "latitude": 55.14,
    "longitude": -1.51292,
    "grid": "IO95fd",
    "locationDesc": "GB-ENG",
    "attempts": 13,
    "activations": 13,
    "qsos": 805
  },
  {
    "reference": "GB-0050",
    "name": "The Lodge (Sandy) RSPB Reserve",
    "latitude": 52.1218,
    "longitude": -0.261428,
    "grid": "IO92uc",
    "locationDesc": "GB-ENG",
    "attempts": 8,
    "activations": 7,
    "qsos": 150
  },
  {
    "reference": "GB-0051",
    "name": "Cranborne Chase and West Wiltshire Downs National Landscape",
    "latitude": 51.0342,
    "longitude": -2.03031,
    "grid": "IO81xa",
    "locationDesc": "GB-ENG",
    "attempts": 58,
    "activations": 55,
    "qsos": 2072
  },
  {
    "reference": "GB-0052",
    "name": "West Sedgemoor RSPB Reserve",
    "latitude": 51.0337,
    "longitude": -2.88414,
    "grid": "IO81na",
    "locationDesc": "GB-ENG",
    "attempts": 3,
    "activations": 3,
    "qsos": 55
  },
  {
    "reference": "GB-0053",
    "name": "North Pennine Dale Meadows SAC - Gowk Bank National Nature Reserve",
    "latitude": 55.0588,
    "longitude": -2.50413,
    "grid": "IO85rb",
    "locationDesc": "GB-ENG",
    "attempts": 1,
    "activations": 1,
    "qsos": 62
  },
  {
    "reference": "GB-0054",
    "name": "Finglandrigg Woods National Nature Reserve",
    "latitude": 54.9005,
    "longitude": -3.13048,
    "grid": "IO84kv",
    "locationDesc": "GB-ENG",
    "attempts": 9,
    "activations": 8,
    "qsos": 235
  },
  {
    "reference": "GB-0055",
    "name": "Highnam Woods RSPB Reserve",
    "latitude": 51.8744,
    "longitude": -2.32774,
    "grid": "IO81uu",
    "locationDesc": "GB-ENG",
    "attempts": 4,
    "activations": 4,
    "qsos": 96
  },
  {
    "reference": "GB-0056",
    "name": "Isle of Wight - Solent Maritime Conservation Reserve",
    "latitude": 50.8284,
    "longitude": -1.12839,
    "grid": "IO90kt",
    "locationDesc": "GB-ENG",
    "attempts": 119,
    "activations": 116,
    "qsos": 3604
  },
  {
    "reference": "GB-0057",
    "name": "Hodbarrow RSPB Reserve",
    "latitude": 54.2,
    "longitude": -3.26547,
    "grid": "IO84ie",
    "locationDesc": "GB-ENG",
    "attempts": 6,
    "activations": 5,
    "qsos": 291
  },
  {
    "reference": "GB-0058",
    "name": "Mendip Hills National Landscape",
    "latitude": 51.2951,
    "longitude": -2.70443,
    "grid": "IO81ph",
    "locationDesc": "GB-ENG",
    "attempts": 36,
    "activations": 32,
    "qsos": 1609
  },
  {
    "reference": "GB-0059",
    "name": "Mid Essex Coast SPA - Colne Estuary - Mersea Island National Nature Reserve",
    "latitude": 51.784,
    "longitude": 0.990587,
    "grid": "JO01ls",
    "locationDesc": "GB-ENG",
    "attempts": 16,
    "activations": 12,
    "qsos": 694
  },
  {
    "reference": "GB-0060",
    "name": "Dove Stone RSPB Reserve",
    "latitude": 53.5295,
    "longitude": -1.97708,
    "grid": "IO93am",
    "locationDesc": "GB-ENG",
    "attempts": 15,
    "activations": 15,
    "qsos": 770
  },
  {
    "reference": "GB-0061",
    "name": "Oak Mere SAC Conservation Reserve",
    "latitude": 53.2152,
    "longitude": -2.6467,
    "grid": "IO83qf",
    "locationDesc": "GB-ENG",
    "attempts": 7,
    "activations": 7,
    "qsos": 196
  },
  {
    "reference": "GB-0062",
    "name": "Pagham Harbour Protected Area",
    "latitude": 50.7719,
    "longitude": -0.755969,
    "grid": "IO90os",
    "locationDesc": "GB-ENG",
    "attempts": 50,
    "activations": 48,
    "qsos": 3020
  },
  {
    "reference": "GB-0063",
    "name": "Northumbrian Coast SPA - St Marys (Bait) Island Protected Area",
    "latitude": 55.0716,
    "longitude": -1.44967,
    "grid": "IO95gb",
    "locationDesc": "GB-ENG",
    "attempts": 15,
    "activations": 15,
    "qsos": 1275
  },
  {
    "reference": "GB-0064",
    "name": "Vange Marsh RSPB Reserve",
    "latitude": 51.5573,
    "longitude": 0.497259,
    "grid": "JO01fn",
    "locationDesc": "GB-ENG",
    "attempts": 29,
    "activations": 29,
    "qsos": 1317
  },
  {
    "reference": "GB-0065",
    "name": "St Bees Head RSPB Reserve",
    "latitude": 54.4912,
    "longitude": -3.60853,
    "grid": "IO84el",
    "locationDesc": "GB-ENG",
    "attempts": 6,
    "activations": 6,
    "qsos": 276
  },
  {
    "reference": "GB-0066",
    "name": "Chesil Beach & The Fleet SPA Protected Area",
    "latitude": 50.6121,
    "longitude": -2.53066,
    "grid": "IO80ro",
    "locationDesc": "GB-ENG",
    "attempts": 9,
    "activations": 9,
    "qsos": 533
  },
  {
    "reference": "GB-0067",
    "name": "Fyfield Down Site of Significant Scientific Interest",
    "latitude": 51.4342,
    "longitude": -1.80239,
    "grid": "IO91ck",
    "locationDesc": "GB-ENG",
    "attempts": 9,
    "activations": 8,
    "qsos": 246
  },
  {
    "reference": "GB-0068",
    "name": "Nene Washes SPA (and RSPB) Protected Area",
    "latitude": 52.5745,
    "longitude": -0.057241,
    "grid": "IO92xn",
    "locationDesc": "GB-ENG",
    "attempts": 8,
    "activations": 6,
    "qsos": 325
  },
  {
    "reference": "GB-0069",
    "name": "Castor Hanglands National Nature Reserve",
    "latitude": 52.6011,
    "longitude": -0.353446,
    "grid": "IO92to",
    "locationDesc": "GB-ENG",
    "attempts": 5,
    "activations": 5,
    "qsos": 90
  },
  {
    "reference": "GB-0070",
    "name": "Morecambe Bay SPA Protected Area",
    "latitude": 54.0735,
    "longitude": -2.87015,
    "grid": "IO84nb",
    "locationDesc": "GB-ENG",
    "attempts": 21,
    "activations": 17,
    "qsos": 1150
  },
  {
    "reference": "GB-0071",
    "name": "Ingleborough Complex SAC Conservation Reserve",
    "latitude": 54.1663,
    "longitude": -2.39583,
    "grid": "IO84td",
    "locationDesc": "GB-ENG",
    "attempts": 18,
    "activations": 13,
    "qsos": 410
  },
  {
    "reference": "GB-0072",
    "name": "Northumberland Coast National Landscape",
    "latitude": 55.5351,
    "longitude": -1.63427,
    "grid": "IO95em",
    "locationDesc": "GB-ENG",
    "attempts": 25,
    "activations": 24,
    "qsos": 1582
  },
  {
    "reference": "GB-0073",
    "name": "North Norfolk Coast SPA - Scolt Head Island National Nature Reserve",
    "latitude": 52.9799,
    "longitude": 0.705778,
    "grid": "JO02ix",
    "locationDesc": "GB-ENG",
    "attempts": 6,
    "activations": 6,
    "qsos": 787
  },
  {
    "reference": "GB-0074",
    "name": "Slapton Ley National Nature Reserve",
    "latitude": 50.2772,
    "longitude": -3.64897,
    "grid": "IO80eg",
    "locationDesc": "GB-ENG",
    "attempts": 13,
    "activations": 13,
    "qsos": 758
  },
  {
    "reference": "GB-0075",
    "name": "Lincolnshire Wolds National Landscape",
    "latitude": 53.3859,
    "longitude": -0.146294,
    "grid": "IO93wj",
    "locationDesc": "GB-ENG",
    "attempts": 146,
    "activations": 138,
    "qsos": 6046
  },
  {
    "reference": "GB-0076",
    "name": "Broadland SPA - Mid-Yare NNR/RSPB National Nature Reserve",
    "latitude": 52.6111,
    "longitude": 1.44436,
    "grid": "JO02ro",
    "locationDesc": "GB-ENG",
    "attempts": 6,
    "activations": 6,
    "qsos": 682
  },
  {
    "reference": "GB-0077",
    "name": "West Midlands Mosses SAC Conservation Reserve",
    "latitude": 52.8511,
    "longitude": -1.96525,
    "grid": "IO92au",
    "locationDesc": "GB-ENG",
    "attempts": 6,
    "activations": 6,
    "qsos": 183
  },
  {
    "reference": "GB-0078",
    "name": "Calke Park National Nature Reserve",
    "latitude": 52.8003,
    "longitude": -1.45753,
    "grid": "IO92gt",
    "locationDesc": "GB-ENG",
    "attempts": 9,
    "activations": 9,
    "qsos": 534
  },
  {
    "reference": "GB-0079",
    "name": "New Forest - Kingston Great Common National Nature Reserve",
    "latitude": 50.8198,
    "longitude": -1.73909,
    "grid": "IO90dt",
    "locationDesc": "GB-ENG",
    "attempts": 13,
    "activations": 13,
    "qsos": 308
  },
  {
    "reference": "GB-0080",
    "name": "Spurn Point National Nature Reserve",
    "latitude": 53.6152,
    "longitude": 0.141867,
    "grid": "JO03bo",
    "locationDesc": "GB-ENG",
    "attempts": 22,
    "activations": 18,
    "qsos": 515
  },
  {
    "reference": "GB-0081",
    "name": "Gibralter Point National Nature Reserve",
    "latitude": 53.1017,
    "longitude": 0.3344,
    "grid": "JO03ec",
    "locationDesc": "GB-ENG",
    "attempts": 10,
    "activations": 10,
    "qsos": 343
  },
  {
    "reference": "GB-0082",
    "name": "Ballard Down National Nature Reserve",
    "latitude": 50.6306,
    "longitude": -1.96571,
    "grid": "IO90ap",
    "locationDesc": "GB-ENG",
    "attempts": 4,
    "activations": 4,
    "qsos": 187
  },
  {
    "reference": "GB-0083",
    "name": "Wallasea Island RSPB Reserve",
    "latitude": 51.6054,
    "longitude": 0.838058,
    "grid": "JO01ko",
    "locationDesc": "GB-ENG",
    "attempts": 8,
    "activations": 8,
    "qsos": 306
  },
  {
    "reference": "GB-0084",
    "name": "Burnham Beeches National Nature Reserve",
    "latitude": 51.5569,
    "longitude": -0.631588,
    "grid": "IO91qn",
    "locationDesc": "GB-ENG",
    "attempts": 4,
    "activations": 3,
    "qsos": 233
  },
  {
    "reference": "GB-0085",
    "name": "Farne Islands National Nature Reserve",
    "latitude": 55.6169,
    "longitude": -1.64866,
    "grid": "IO95eo",
    "locationDesc": "GB-ENG",
    "attempts": 1,
    "activations": 1,
    "qsos": 11
  },
  {
    "reference": "GB-0086",
    "name": "River Mease SAC and Site of Significant Scientific Interest",
    "latitude": 52.7118,
    "longitude": -1.57703,
    "grid": "IO92fr",
    "locationDesc": "GB-ENG",
    "attempts": 13,
    "activations": 13,
    "qsos": 286
  },
  {
    "reference": "GB-0087",
    "name": "Tudeley Woods RSPB Reserve",
    "latitude": 51.1665,
    "longitude": 0.312955,
    "grid": "JO01dd",
    "locationDesc": "GB-ENG",
    "attempts": 2,
    "activations": 1,
    "qsos": 40
  },
  {
    "reference": "GB-0088",
    "name": "Dawlish Warren National Nature Reserve",
    "latitude": 50.6025,
    "longitude": -3.43939,
    "grid": "IO80go",
    "locationDesc": "GB-ENG",
    "attempts": 11,
    "activations": 11,
    "qsos": 557
  },
  {
    "reference": "GB-0089",
    "name": "Wicken Fen National Nature Reserve",
    "latitude": 52.3105,
    "longitude": 0.291739,
    "grid": "JO02dh",
    "locationDesc": "GB-ENG",
    "attempts": 5,
    "activations": 4,
    "qsos": 143
  },
  {
    "reference": "GB-0090",
    "name": "Leigh National Nature Reserve",
    "latitude": 51.5363,
    "longitude": 0.633167,
    "grid": "JO01hm",
    "locationDesc": "GB-ENG",
    "attempts": 10,
    "activations": 10,
    "qsos": 235
  },
  {
    "reference": "GB-0091",
    "name": "Morecambe Pavements SAC (inc Hutton Roof Crags and Park Wood) National Nature Reserve",
    "latitude": 54.192,
    "longitude": -2.6841,
    "grid": "IO84pe",
    "locationDesc": "GB-ENG",
    "attempts": 15,
    "activations": 12,
    "qsos": 476
  },
  {
    "reference": "GB-0092",
    "name": "Bradfield Woods National Nature Reserve",
    "latitude": 52.1864,
    "longitude": 0.830029,
    "grid": "JO02je",
    "locationDesc": "GB-ENG",
    "attempts": 7,
    "activations": 7,
    "qsos": 327
  },
  {
    "reference": "GB-0093",
    "name": "Dorset Heathlands - Holton Heath (inc Wareham Meadows RSPB) National Nature Reserve",
    "latitude": 50.7111,
    "longitude": -2.08449,
    "grid": "IO80wr",
    "locationDesc": "GB-ENG",
    "attempts": 1,
    "activations": 1,
    "qsos": 55
  },
  {
    "reference": "GB-0094",
    "name": "Surrey Hills National Landscape",
    "latitude": 51.2531,
    "longitude": -0.312483,
    "grid": "IO91ug",
    "locationDesc": "GB-ENG",
    "attempts": 104,
    "activations": 102,
    "qsos": 4572
  },
  {
    "reference": "GB-0095",
    "name": "High Weald National Landscape",
    "latitude": 51.0911,
    "longitude": 0.0926489,
    "grid": "JO01bc",
    "locationDesc": "GB-ENG",
    "attempts": 42,
    "activations": 42,
    "qsos": 2125
  },
  {
    "reference": "GB-0096",
    "name": "Peak District Dales SAC - Topley Pike and Deep Dale Site of Significant Scientific Interest",
    "latitude": 53.239,
    "longitude": -1.85671,
    "grid": "IO93bf",
    "locationDesc": "GB-ENG",
    "attempts": 5,
    "activations": 5,
    "qsos": 147
  },
  {
    "reference": "GB-0097",
    "name": "Saltfleetby-Theddlethorpe Dunes National Nature Reserve",
    "latitude": 53.4009,
    "longitude": 0.203481,
    "grid": "JO03cj",
    "locationDesc": "GB-ENG",
    "attempts": 17,
    "activations": 16,
    "qsos": 363
  },
  {
    "reference": "GB-0098",
    "name": "Buckenham Marshes RSPB Reserve",
    "latitude": 52.5975,
    "longitude": 1.47006,
    "grid": "JO02ro",
    "locationDesc": "GB-ENG",
    "attempts": 7,
    "activations": 7,
    "qsos": 956
  },
  {
    "reference": "GB-0099",
    "name": "Braunton Burrows Biosphere Reserve",
    "latitude": 51.091,
    "longitude": -4.21038,
    "grid": "IO71vc",
    "locationDesc": "GB-ENG",
    "attempts": 11,
    "activations": 11,
    "qsos": 1030
  },
  {
    "reference": "GB-0100",
    "name": "North Norfolk Coast SPA - Holkham National Nature Reserve",
    "latitude": 52.9623,
    "longitude": 0.807586,
    "grid": "JO02jx",
    "locationDesc": "GB-ENG",
    "attempts": 9,
    "activations": 9,
    "qsos": 861
  },
  {
    "reference": "GB-0101",
    "name": "Dearne Valley - Old Moor RSPB Reserve",
    "latitude": 53.5158,
    "longitude": -1.36477,
    "grid": "IO93hm",
    "locationDesc": "GB-ENG",
    "attempts": 7,
    "activations": 5,
    "qsos": 378
  },
  {
    "reference": "GB-0102",
    "name": "Lodmoor Country Park (and RSPB) Country Park",
    "latitude": 50.6271,
    "longitude": -2.44203,
    "grid": "IO80sp",
    "locationDesc": "GB-ENG",
    "attempts": 5,
    "activations": 4,
    "qsos": 215
  },
  {
    "reference": "GB-0103",
    "name": "Wealden Heaths SPA - Bramshott and Ludshott Commons Protected Area",
    "latitude": 51.0977,
    "longitude": -0.76749,
    "grid": "IO91oc",
    "locationDesc": "GB-ENG",
    "attempts": 6,
    "activations": 6,
    "qsos": 318
  },
  {
    "reference": "GB-0104",
    "name": "Lower Derwent Valley National Nature Reserve",
    "latitude": 53.8788,
    "longitude": -0.928428,
    "grid": "IO93mv",
    "locationDesc": "GB-ENG",
    "attempts": 10,
    "activations": 10,
    "qsos": 532
  },
  {
    "reference": "GB-0105",
    "name": "Broadland SPA - Bure Marshes National Nature Reserve",
    "latitude": 52.6958,
    "longitude": 1.45402,
    "grid": "JO02rq",
    "locationDesc": "GB-ENG",
    "attempts": 2,
    "activations": 2,
    "qsos": 179
  },
  {
    "reference": "GB-0106",
    "name": "Peak District Dales SAC - Dovedale National Nature Reserve",
    "latitude": 53.0667,
    "longitude": -1.78388,
    "grid": "IO93cb",
    "locationDesc": "GB-ENG",
    "attempts": 2,
    "activations": 2,
    "qsos": 96
  },
  {
    "reference": "GB-0107",
    "name": "Ebernoe Common National Nature Reserve",
    "latitude": 51.0416,
    "longitude": -0.609603,
    "grid": "IO91qa",
    "locationDesc": "GB-ENG",
    "attempts": 4,
    "activations": 4,
    "qsos": 185
  },
  {
    "reference": "GB-0108",
    "name": "Wye Valley (England only) National Landscape",
    "latitude": 51.8369,
    "longitude": -2.63417,
    "grid": "IO81qu",
    "locationDesc": "GB-ENG",
    "attempts": 11,
    "activations": 9,
    "qsos": 290
  },
  {
    "reference": "GB-0109",
    "name": "Ham Street Woods National Nature Reserve",
    "latitude": 51.0683,
    "longitude": 0.858849,
    "grid": "JO01kb",
    "locationDesc": "GB-ENG",
    "attempts": 1,
    "activations": 1,
    "qsos": 11
  },
  {
    "reference": "GB-0110",
    "name": "Wybunbury Moss National Nature Reserve",
    "latitude": 53.0485,
    "longitude": -2.4541,
    "grid": "IO83sb",
    "locationDesc": "GB-ENG",
    "attempts": 3,
    "activations": 3,
    "qsos": 103
  },
  {
    "reference": "GB-0111",
    "name": "Avon Valley SPA/RAMSAR Protected Area",
    "latitude": 50.7585,
    "longitude": -1.78061,
    "grid": "IO90cs",
    "locationDesc": "GB-ENG",
    "attempts": 23,
    "activations": 23,
    "qsos": 662
  },
  {
    "reference": "GB-0112",
    "name": "New Forest National Park",
    "latitude": 50.8747,
    "longitude": -1.63153,
    "grid": "IO90eu",
    "locationDesc": "GB-ENG",
    "attempts": 166,
    "activations": 144,
    "qsos": 3096
  },
  {
    "reference": "GB-0113",
    "name": "Dedham Vale National Landscape",
    "latitude": 51.9845,
    "longitude": 0.926209,
    "grid": "JO01lx",
    "locationDesc": "GB-ENG",
    "attempts": 9,
    "activations": 9,
    "qsos": 317
  },
  {
    "reference": "GB-0114",
    "name": "Elmley Marshes National Nature Reserve",
    "latitude": 51.3809,
    "longitude": 0.794324,
    "grid": "JO01jj",
    "locationDesc": "GB-ENG",
    "attempts": 4,
    "activations": 3,
    "qsos": 285
  },
  {
    "reference": "GB-0115",
    "name": "Fore Wood RSPB Reserve",
    "latitude": 50.888,
    "longitude": 0.496576,
    "grid": "JO00fv",
    "locationDesc": "GB-ENG",
    "attempts": 2,
    "activations": 2,
    "qsos": 64
  },
  {
    "reference": "GB-0116",
    "name": "Isle of Wight - Isle of Wight Downs Conservation Reserve",
    "latitude": 50.6699,
    "longitude": -1.47668,
    "grid": "IO90gq",
    "locationDesc": "GB-ENG",
    "attempts": 16,
    "activations": 16,
    "qsos": 474
  },
  {
    "reference": "GB-0117",
    "name": "Thursley Hankley & Frensham Commons National Nature Reserve",
    "latitude": 51.1601,
    "longitude": -0.737544,
    "grid": "IO91pd",
    "locationDesc": "GB-ENG",
    "attempts": 4,
    "activations": 4,
    "qsos": 453
  },
  {
    "reference": "GB-0119",
    "name": "Surlingham Church Marsh RSPB Reserve",
    "latitude": 52.6083,
    "longitude": 1.4015,
    "grid": "JO02qo",
    "locationDesc": "GB-ENG",
    "attempts": 3,
    "activations": 3,
    "qsos": 272
  },
  {
    "reference": "GB-0120",
    "name": "The National Forest",
    "latitude": 52.7902,
    "longitude": -1.58311,
    "grid": "IO92fs",
    "locationDesc": "GB-ENG",
    "attempts": 35,
    "activations": 33,
    "qsos": 1277
  },
  {
    "reference": "GB-0121",
    "name": "Northumbrian Coast SPA - Spital Point & Carrs Protected Area",
    "latitude": 55.1743,
    "longitude": -1.51471,
    "grid": "IO95fe",
    "locationDesc": "GB-ENG",
    "attempts": 5,
    "activations": 5,
    "qsos": 225
  },
  {
    "reference": "GB-0122",
    "name": "Fairburn Ings RSPB Reserve",
    "latitude": 53.7445,
    "longitude": -1.31606,
    "grid": "IO93ir",
    "locationDesc": "GB-ENG",
    "attempts": 12,
    "activations": 10,
    "qsos": 493
  },
  {
    "reference": "GB-0123",
    "name": "River Tweed SAC & Tweed Estuary SAC Conservation Reserve",
    "latitude": 55.7736,
    "longitude": -2.01279,
    "grid": "IO85xs",
    "locationDesc": "GB-ENG",
    "attempts": 7,
    "activations": 7,
    "qsos": 405
  },
  {
    "reference": "GB-0124",
    "name": "Foxley Wood National Nature Reserve",
    "latitude": 52.761,
    "longitude": 1.04256,
    "grid": "JO02ms",
    "locationDesc": "GB-ENG",
    "attempts": 5,
    "activations": 4,
    "qsos": 425
  },
  {
    "reference": "GB-0125",
    "name": "Great Yarmouth North Denes SPA - Great Yarmouth North Denes Site of Significant Scientific Interest",
    "latitude": 52.6256,
    "longitude": 1.74243,
    "grid": "JO02up",
    "locationDesc": "GB-ENG",
    "attempts": 5,
    "activations": 4,
    "qsos": 444
  },
  {
    "reference": "GB-0126",
    "name": "Samphire Hoe Country Park",
    "latitude": 51.1041,
    "longitude": 1.27037,
    "grid": "JO01pc",
    "locationDesc": "GB-ENG",
    "attempts": 8,
    "activations": 6,
    "qsos": 215
  },
  {
    "reference": "GB-0127",
    "name": "Pewsey Down SAC Conservation Reserve",
    "latitude": 51.3729,
    "longitude": -1.83442,
    "grid": "IO91bi",
    "locationDesc": "GB-ENG",
    "attempts": 12,
    "activations": 12,
    "qsos": 388
  },
  {
    "reference": "GB-0128",
    "name": "Alice Holt Royal Forest",
    "latitude": 51.1694,
    "longitude": -0.83939,
    "grid": "IO91ne",
    "locationDesc": "GB-ENG",
    "attempts": 3,
    "activations": 3,
    "qsos": 177
  },
  {
    "reference": "GB-0129",
    "name": "Rodney Stoke National Nature Reserve",
    "latitude": 51.2532,
    "longitude": -2.73005,
    "grid": "IO81pg",
    "locationDesc": "GB-ENG",
    "attempts": 6,
    "activations": 6,
    "qsos": 222
  },
  {
    "reference": "GB-0130",
    "name": "Butser Hill National Nature Reserve",
    "latitude": 50.9719,
    "longitude": -0.98084,
    "grid": "IO90mx",
    "locationDesc": "GB-ENG",
    "attempts": 141,
    "activations": 137,
    "qsos": 4944
  },
  {
    "reference": "GB-0131",
    "name": "Mersey Narrows and North Wirral Foreshore SPA/SAC/Ramsar Conservation Reserve",
    "latitude": 53.4218,
    "longitude": -3.10039,
    "grid": "IO83kk",
    "locationDesc": "GB-ENG",
    "attempts": 55,
    "activations": 51,
    "qsos": 1217
  },
  {
    "reference": "GB-0132",
    "name": "Isle of Wight - South Wight Maritime Conservation Reserve",
    "latitude": 50.5753,
    "longitude": -1.29645,
    "grid": "IO90in",
    "locationDesc": "GB-ENG",
    "attempts": 13,
    "activations": 13,
    "qsos": 398
  },
  {
    "reference": "GB-0133",
    "name": "Isle of Portland to Studland Cliffs Conservation Area",
    "latitude": 50.5454,
    "longitude": -2.43348,
    "grid": "IO80sn",
    "locationDesc": "GB-ENG",
    "attempts": 33,
    "activations": 32,
    "qsos": 5704
  },
  {
    "reference": "GB-0135",
    "name": "The Lizard National Nature Reserve",
    "latitude": 49.9595,
    "longitude": -5.20638,
    "grid": "IN79jx",
    "locationDesc": "GB-ENG",
    "attempts": 8,
    "activations": 8,
    "qsos": 333
  },
  {
    "reference": "GB-0136",
    "name": "Peak District Dales SAC - Derbyshire Dales NNR - Long Dale Site of Significant Scientific Interest",
    "latitude": 53.1359,
    "longitude": -1.70944,
    "grid": "IO93dd",
    "locationDesc": "GB-ENG",
    "attempts": 2,
    "activations": 2,
    "qsos": 65
  },
  {
    "reference": "GB-0137",
    "name": "Isle of Wight - Briddlesford Copses Conservation Reserve",
    "latitude": 50.7112,
    "longitude": -1.22174,
    "grid": "IO90jr",
    "locationDesc": "GB-ENG",
    "attempts": 2,
    "activations": 1,
    "qsos": 29
  },
  {
    "reference": "GB-0138",
    "name": "Cavenham Heath National Nature Reserve",
    "latitude": 52.3239,
    "longitude": 0.567448,
    "grid": "JO02gh",
    "locationDesc": "GB-ENG",
    "attempts": 9,
    "activations": 9,
    "qsos": 796
  },
  {
    "reference": "GB-0139",
    "name": "Roman Wall Loughs SAC including Greenlee Lough NNR Conservation Reserve",
    "latitude": 55.0163,
    "longitude": -2.34231,
    "grid": "IO85ta",
    "locationDesc": "GB-ENG",
    "attempts": 6,
    "activations": 5,
    "qsos": 157
  },
  {
    "reference": "GB-0140",
    "name": "Chippenham Fen National Nature Reserve",
    "latitude": 52.2933,
    "longitude": 0.424314,
    "grid": "JO02fh",
    "locationDesc": "GB-ENG",
    "attempts": 2,
    "activations": 2,
    "qsos": 79
  },
  {
    "reference": "GB-0141",
    "name": "Ensor's Pool SAC Conservation Reserve",
    "latitude": 52.5096,
    "longitude": -1.48658,
    "grid": "IO92gm",
    "locationDesc": "GB-ENG",
    "attempts": 5,
    "activations": 5,
    "qsos": 86
  },
  {
    "reference": "GB-0142",
    "name": "Solway Mosses SAC - Drumburgh Moss National Nature Reserve",
    "latitude": 54.9149,
    "longitude": -3.1638,
    "grid": "IO84kv",
    "locationDesc": "GB-ENG",
    "attempts": 7,
    "activations": 6,
    "qsos": 425
  },
  {
    "reference": "GB-0143",
    "name": "Shropshire Hills National Landscape",
    "latitude": 52.5542,
    "longitude": -2.85172,
    "grid": "IO82nn",
    "locationDesc": "GB-ENG",
    "attempts": 42,
    "activations": 35,
    "qsos": 1614
  },
  {
    "reference": "GB-0144",
    "name": "Arundel WWT Wildlife Area",
    "latitude": 50.8632,
    "longitude": -0.549799,
    "grid": "IO90ru",
    "locationDesc": "GB-ENG",
    "attempts": 10,
    "activations": 10,
    "qsos": 326
  },
  {
    "reference": "GB-0145",
    "name": "Kingley Vale SAC Conservation Reserve",
    "latitude": 50.8923,
    "longitude": -0.837939,
    "grid": "IO90nv",
    "locationDesc": "GB-ENG",
    "attempts": 9,
    "activations": 9,
    "qsos": 190
  },
  {
    "reference": "GB-0146",
    "name": "Blackdown Hills National Landscape",
    "latitude": 50.8463,
    "longitude": -3.07355,
    "grid": "IO80lu",
    "locationDesc": "GB-ENG",
    "attempts": 24,
    "activations": 24,
    "qsos": 1960
  },
  {
    "reference": "GB-0147",
    "name": "Geltsdale RSPB Reserve",
    "latitude": 54.9143,
    "longitude": -2.64313,
    "grid": "IO84qv",
    "locationDesc": "GB-ENG",
    "attempts": 4,
    "activations": 4,
    "qsos": 176
  },
  {
    "reference": "GB-0148",
    "name": "Newham Bog National Nature Reserve",
    "latitude": 55.5585,
    "longitude": -1.73427,
    "grid": "IO95dn",
    "locationDesc": "GB-ENG",
    "attempts": 1,
    "activations": 1,
    "qsos": 60
  },
  {
    "reference": "GB-0149",
    "name": "Peak District Dales SAC - Derbyshire Dales NNR - Lathkill Dale Site of Significant Scientific Interest",
    "latitude": 53.1862,
    "longitude": -1.7374,
    "grid": "IO93de",
    "locationDesc": "GB-ENG",
    "attempts": 4,
    "activations": 4,
    "qsos": 88
  },
  {
    "reference": "GB-0150",
    "name": "Tamar Valley National Landscape",
    "latitude": 50.4993,
    "longitude": -4.18141,
    "grid": "IO70vl",
    "locationDesc": "GB-ENG",
    "attempts": 44,
    "activations": 43,
    "qsos": 1545
  },
  {
    "reference": "GB-0151",
    "name": "North Pennines National Landscape",
    "latitude": 54.6713,
    "longitude": -2.26164,
    "grid": "IO84uq",
    "locationDesc": "GB-ENG",
    "attempts": 71,
    "activations": 62,
    "qsos": 4419
  },
  {
    "reference": "GB-0152",
    "name": "Basingstoke Canal Site of Significant Scientific Interest",
    "latitude": 51.3018,
    "longitude": -0.706216,
    "grid": "IO91ph",
    "locationDesc": "GB-ENG",
    "attempts": 3,
    "activations": 3,
    "qsos": 222
  },
  {
    "reference": "GB-0153",
    "name": "Northumbrian Coast SPA - Cresswell Foreshore Protected Area",
    "latitude": 55.243,
    "longitude": -1.5514,
    "grid": "IO95ff",
    "locationDesc": "GB-ENG",
    "attempts": 10,
    "activations": 9,
    "qsos": 334
  },
  {
    "reference": "GB-0154",
    "name": "Dorset Heathlands - Stoborough Heath National Nature Reserve",
    "latitude": 50.6723,
    "longitude": -2.08559,
    "grid": "IO80wq",
    "locationDesc": "GB-ENG",
    "attempts": 5,
    "activations": 5,
    "qsos": 239
  },
  {
    "reference": "GB-0155",
    "name": "Norfolk Coast National Landscape",
    "latitude": 52.9738,
    "longitude": 0.831208,
    "grid": "JO02jx",
    "locationDesc": "GB-ENG",
    "attempts": 47,
    "activations": 41,
    "qsos": 3709
  },
  {
    "reference": "GB-0156",
    "name": "Greylake RSPB Reserve",
    "latitude": 51.1076,
    "longitude": -2.85956,
    "grid": "IO81nc",
    "locationDesc": "GB-ENG",
    "attempts": 9,
    "activations": 9,
    "qsos": 226
  },
  {
    "reference": "GB-0157",
    "name": "Dorset Heathlands - Holt Heath National Nature Reserve",
    "latitude": 50.8319,
    "longitude": -1.91167,
    "grid": "IO90bt",
    "locationDesc": "GB-ENG",
    "attempts": 5,
    "activations": 5,
    "qsos": 198
  },
  {
    "reference": "GB-0158",
    "name": "Winterbourne Downs RSPB Reserve",
    "latitude": 51.1555,
    "longitude": -1.69884,
    "grid": "IO91dd",
    "locationDesc": "GB-ENG",
    "attempts": 10,
    "activations": 8,
    "qsos": 318
  },
  {
    "reference": "GB-0159",
    "name": "Slimbridge WWT Wildlife Area",
    "latitude": 51.74,
    "longitude": -2.40499,
    "grid": "IO81tr",
    "locationDesc": "GB-ENG",
    "attempts": 2,
    "activations": 2,
    "qsos": 21
  },
  {
    "reference": "GB-0160",
    "name": "Rye Harbour Nature Reserve",
    "latitude": 50.9343,
    "longitude": 0.767485,
    "grid": "JO00jw",
    "locationDesc": "GB-ENG",
    "attempts": 2,
    "activations": 1,
    "qsos": 20
  },
  {
    "reference": "GB-0161",
    "name": "Solway Mosses SAC - South Solway Mosses [South] National Nature Reserve",
    "latitude": 54.865,
    "longitude": -3.21622,
    "grid": "IO84ju",
    "locationDesc": "GB-ENG",
    "attempts": 3,
    "activations": 3,
    "qsos": 221
  },
  {
    "reference": "GB-0162",
    "name": "Border Mires and Kielder-Butterburn SAC - Kielderhead National Nature Reserve",
    "latitude": 55.2927,
    "longitude": -2.49987,
    "grid": "IO85sh",
    "locationDesc": "GB-ENG",
    "attempts": 2,
    "activations": 2,
    "qsos": 60
  },
  {
    "reference": "GB-0163",
    "name": "Broadland SPA - Ludham and Potter Heigham Marshes National Nature Reserve",
    "latitude": 52.7031,
    "longitude": 1.55965,
    "grid": "JO02sq",
    "locationDesc": "GB-ENG",
    "attempts": 1,
    "activations": 1,
    "qsos": 397
  },
  {
    "reference": "GB-0164",
    "name": "Nor Marsh & Motney Hill RSPB Reserve",
    "latitude": 51.3781,
    "longitude": 0.615703,
    "grid": "JO01hj",
    "locationDesc": "GB-ENG",
    "attempts": 4,
    "activations": 4,
    "qsos": 79
  },
  {
    "reference": "GB-0165",
    "name": "Lake District National Park",
    "latitude": 54.4609,
    "longitude": -3.08924,
    "grid": "IO84kl",
    "locationDesc": "GB-ENG",
    "attempts": 341,
    "activations": 267,
    "qsos": 8649
  },
  {
    "reference": "GB-0166",
    "name": "The Cotswolds National Landscape",
    "latitude": 51.8283,
    "longitude": -1.8437,
    "grid": "IO91bt",
    "locationDesc": "GB-ENG",
    "attempts": 113,
    "activations": 108,
    "qsos": 4574
  },
  {
    "reference": "GB-0167",
    "name": "Ouse Washes SPA (and RSPB) Protected Area",
    "latitude": 52.4516,
    "longitude": 0.162732,
    "grid": "JO02bk",
    "locationDesc": "GB-ENG",
    "attempts": 28,
    "activations": 28,
    "qsos": 894
  },
  {
    "reference": "GB-0168",
    "name": "Alde-Ore Estuary SPA - Boyton Marshes RSPB Reserve",
    "latitude": 52.0737,
    "longitude": 1.48782,
    "grid": "JO02rb",
    "locationDesc": "GB-ENG",
    "attempts": 4,
    "activations": 4,
    "qsos": 184
  },
  {
    "reference": "GB-0169",
    "name": "Northumbrian Coast SPA/Ramsar - Parson's Rocks Protected Area",
    "latitude": 54.9305,
    "longitude": -1.36557,
    "grid": "IO94hw",
    "locationDesc": "GB-ENG",
    "attempts": 9,
    "activations": 9,
    "qsos": 658
  },
  {
    "reference": "GB-0170",
    "name": "Eastern Moors SSSI & RSPB Reserve",
    "latitude": 53.2687,
    "longitude": -1.60785,
    "grid": "IO93eg",
    "locationDesc": "GB-ENG",
    "attempts": 26,
    "activations": 25,
    "qsos": 1144
  },
  {
    "reference": "GB-0171",
    "name": "Upwood Meadows National Nature Reserve",
    "latitude": 52.4259,
    "longitude": -0.161975,
    "grid": "IO92wk",
    "locationDesc": "GB-ENG",
    "attempts": 5,
    "activations": 5,
    "qsos": 233
  },
  {
    "reference": "GB-0172",
    "name": "Thames Basin Heaths SPA - Bagshot Heaths Protected Area",
    "latitude": 51.36,
    "longitude": -0.723578,
    "grid": "IO91pi",
    "locationDesc": "GB-ENG",
    "attempts": 2,
    "activations": 2,
    "qsos": 113
  },
  {
    "reference": "GB-0173",
    "name": "North Wessex Downs National Landscape",
    "latitude": 51.4131,
    "longitude": -1.49361,
    "grid": "IO91gj",
    "locationDesc": "GB-ENG",
    "attempts": 161,
    "activations": 147,
    "qsos": 7161
  },
  {
    "reference": "GB-0174",
    "name": "Kinder Scout National Nature Reserve",
    "latitude": 53.3846,
    "longitude": -1.87351,
    "grid": "IO93bj",
    "locationDesc": "GB-ENG",
    "attempts": 17,
    "activations": 16,
    "qsos": 359
  },
  {
    "reference": "GB-0175",
    "name": "North Devon National Landscape",
    "latitude": 51.135,
    "longitude": -4.21417,
    "grid": "IO71vd",
    "locationDesc": "GB-ENG",
    "attempts": 59,
    "activations": 50,
    "qsos": 3951
  },
  {
    "reference": "GB-0176",
    "name": "Benacre Broad to Easton Bavents Lagoons SPA Protected Area",
    "latitude": 52.3644,
    "longitude": 1.70161,
    "grid": "JO02ui",
    "locationDesc": "GB-ENG",
    "attempts": 8,
    "activations": 7,
    "qsos": 737
  },
  {
    "reference": "GB-0177",
    "name": "Dorset Heathlands - Arne Reedbeds National Nature Reserve",
    "latitude": 50.6848,
    "longitude": -2.0725,
    "grid": "IO80xq",
    "locationDesc": "GB-ENG",
    "attempts": 3,
    "activations": 3,
    "qsos": 146
  },
  {
    "reference": "GB-0178",
    "name": "Berry Head National Nature Reserve",
    "latitude": 50.3957,
    "longitude": -3.49214,
    "grid": "IO80gj",
    "locationDesc": "GB-ENG",
    "attempts": 25,
    "activations": 25,
    "qsos": 3081
  },
  {
    "reference": "GB-0179",
    "name": "Farnham Heath RSPB Reserve",
    "latitude": 51.183,
    "longitude": -0.780405,
    "grid": "IO91oe",
    "locationDesc": "GB-ENG",
    "attempts": 1,
    "activations": 1,
    "qsos": 10
  },
  {
    "reference": "GB-0180",
    "name": "Frampton Marsh RSPB Reserve",
    "latitude": 52.9313,
    "longitude": 0.018677,
    "grid": "JO02aw",
    "locationDesc": "GB-ENG",
    "attempts": 6,
    "activations": 6,
    "qsos": 431
  },
  {
    "reference": "GB-0181",
    "name": "Muckle Moss National Nature Reserve",
    "latitude": 54.9938,
    "longitude": -2.32441,
    "grid": "IO84ux",
    "locationDesc": "GB-ENG",
    "attempts": 5,
    "activations": 5,
    "qsos": 224
  },
  {
    "reference": "GB-0182",
    "name": "Bredon Hill SAC Conservation Reserve",
    "latitude": 52.0567,
    "longitude": -2.08718,
    "grid": "IO82wb",
    "locationDesc": "GB-ENG",
    "attempts": 5,
    "activations": 5,
    "qsos": 203
  },
  {
    "reference": "GB-0183",
    "name": "Dorset and East Devon Coast World Heritage Site Provincial Park",
    "latitude": 50.7193,
    "longitude": -2.94351,
    "grid": "IO80mr",
    "locationDesc": "GB-ENG",
    "attempts": 11,
    "activations": 11,
    "qsos": 250
  },
  {
    "reference": "GB-0184",
    "name": "Peak District Dales SAC - Wye Valley Site of Significant Scientific Interest",
    "latitude": 53.2571,
    "longitude": -1.78819,
    "grid": "IO93cg",
    "locationDesc": "GB-ENG",
    "attempts": 5,
    "activations": 5,
    "qsos": 139
  },
  {
    "reference": "GB-0185",
    "name": "Windsor Forest and Great Park Royal Forest",
    "latitude": 51.4269,
    "longitude": -0.619243,
    "grid": "IO91qk",
    "locationDesc": "GB-ENG",
    "attempts": 15,
    "activations": 14,
    "qsos": 1390
  },
  {
    "reference": "GB-0186",
    "name": "Martin Mere WWT (and SPA/RAMSAR) Wildlife Area",
    "latitude": 53.6227,
    "longitude": -2.86669,
    "grid": "IO83no",
    "locationDesc": "GB-ENG",
    "attempts": 5,
    "activations": 5,
    "qsos": 224
  },
  {
    "reference": "GB-0187",
    "name": "Durlston National Nature Reserve",
    "latitude": 50.5965,
    "longitude": -1.96314,
    "grid": "IO90ao",
    "locationDesc": "GB-ENG",
    "attempts": 11,
    "activations": 9,
    "qsos": 370
  },
  {
    "reference": "GB-0188",
    "name": "Thames Basin Heaths SPA - Broadmoor & Bagshot Heath Site of Significant Scientific Interest",
    "latitude": 51.3781,
    "longitude": -0.762765,
    "grid": "IO91oj",
    "locationDesc": "GB-ENG",
    "attempts": 2,
    "activations": 2,
    "qsos": 36
  },
  {
    "reference": "GB-0189",
    "name": "Teesmouth & Cleveland Coast SPA - Teesmouth National Nature Reserve",
    "latitude": 54.6373,
    "longitude": -1.16608,
    "grid": "IO94kp",
    "locationDesc": "GB-ENG",
    "attempts": 92,
    "activations": 90,
    "qsos": 5909
  },
  {
    "reference": "GB-0190",
    "name": "Whitbarrow National Nature Reserve",
    "latitude": 54.2753,
    "longitude": -2.85946,
    "grid": "IO84ng",
    "locationDesc": "GB-ENG",
    "attempts": 7,
    "activations": 6,
    "qsos": 467
  },
  {
    "reference": "GB-0191",
    "name": "Great Yarmouth North Denes SPA - Winterton Dunes National Nature Reserve",
    "latitude": 52.7182,
    "longitude": 1.69806,
    "grid": "JO02ur",
    "locationDesc": "GB-ENG",
    "attempts": 8,
    "activations": 8,
    "qsos": 773
  },
  {
    "reference": "GB-0192",
    "name": "Suffolk Coast National Nature Reserve",
    "latitude": 52.3022,
    "longitude": 1.6506,
    "grid": "JO02th",
    "locationDesc": "GB-ENG",
    "attempts": 8,
    "activations": 3,
    "qsos": 62
  },
  {
    "reference": "GB-0193",
    "name": "Teesmouth & Cleveland Coast SPA - Hartlepool Foreshore & Wetlands Protected Area",
    "latitude": 54.6468,
    "longitude": -1.18305,
    "grid": "IO94jp",
    "locationDesc": "GB-ENG",
    "attempts": 211,
    "activations": 204,
    "qsos": 13404
  },
  {
    "reference": "GB-0194",
    "name": "Blacktoft Sands RSPB Reserve",
    "latitude": 53.6995,
    "longitude": -0.724156,
    "grid": "IO93pq",
    "locationDesc": "GB-ENG",
    "attempts": 6,
    "activations": 5,
    "qsos": 562
  },
  {
    "reference": "GB-0195",
    "name": "North Norfolk Coast SPA - Holme Dunes National Nature Reserve",
    "latitude": 52.9732,
    "longitude": 0.563847,
    "grid": "JO02gx",
    "locationDesc": "GB-ENG",
    "attempts": 10,
    "activations": 10,
    "qsos": 2114
  },
  {
    "reference": "GB-0196",
    "name": "Radipole Lake RSPB Reserve",
    "latitude": 50.6213,
    "longitude": -2.46344,
    "grid": "IO80so",
    "locationDesc": "GB-ENG",
    "attempts": 5,
    "activations": 5,
    "qsos": 130
  },
  {
    "reference": "GB-0197",
    "name": "Northumbrian Coast SPA - Durham SAC (Maiden's Flat & surrounding coast) Protected Area",
    "latitude": 54.876,
    "longitude": -1.35609,
    "grid": "IO94hv",
    "locationDesc": "GB-ENG",
    "attempts": 13,
    "activations": 13,
    "qsos": 1050
  },
  {
    "reference": "GB-0198",
    "name": "Thames Basin Heaths SPA - Yateley Heath Woods Site of Significant Scientific Interest",
    "latitude": 51.3151,
    "longitude": -0.848922,
    "grid": "IO91nh",
    "locationDesc": "GB-ENG",
    "attempts": 2,
    "activations": 2,
    "qsos": 35
  },
  {
    "reference": "GB-0199",
    "name": "Ham Wall RSPB Reserve",
    "latitude": 51.153,
    "longitude": -2.78903,
    "grid": "IO81od",
    "locationDesc": "GB-ENG",
    "attempts": 7,
    "activations": 5,
    "qsos": 189
  },
  {
    "reference": "GB-0200",
    "name": "The Swale SPA Protected Area",
    "latitude": 51.3621,
    "longitude": 0.872445,
    "grid": "JO01ki",
    "locationDesc": "GB-ENG",
    "attempts": 1,
    "activations": 1,
    "qsos": 42
  },
  {
    "reference": "GB-0201",
    "name": "Solent and Southampton Water - North Solent National Nature Reserve",
    "latitude": 50.7772,
    "longitude": -1.40761,
    "grid": "IO90hs",
    "locationDesc": "GB-ENG",
    "attempts": 11,
    "activations": 10,
    "qsos": 228
  },
  {
    "reference": "GB-0202",
    "name": "Garston Wood RSPB Reserve",
    "latitude": 50.9746,
    "longitude": -1.99626,
    "grid": "IO90ax",
    "locationDesc": "GB-ENG",
    "attempts": 6,
    "activations": 5,
    "qsos": 175
  },
  {
    "reference": "GB-0203",
    "name": "Roydon Common National Nature Reserve",
    "latitude": 52.7785,
    "longitude": 0.490205,
    "grid": "JO02fs",
    "locationDesc": "GB-ENG",
    "attempts": 4,
    "activations": 4,
    "qsos": 355
  },
  {
    "reference": "GB-0204",
    "name": "Holburn Lake & Moss SPA/RAMSAR Protected Area",
    "latitude": 55.6217,
    "longitude": -1.91902,
    "grid": "IO95ao",
    "locationDesc": "GB-ENG",
    "attempts": 2,
    "activations": 2,
    "qsos": 115
  },
  {
    "reference": "GB-0205",
    "name": "Breney Common and Goss and Tregoss Moors Conservation Reserve",
    "latitude": 50.4042,
    "longitude": -4.87704,
    "grid": "IO70nj",
    "locationDesc": "GB-ENG",
    "attempts": 10,
    "activations": 8,
    "qsos": 474
  },
  {
    "reference": "GB-0206",
    "name": "Nidderdale National Landscape",
    "latitude": 54.1158,
    "longitude": -1.72959,
    "grid": "IO94dc",
    "locationDesc": "GB-ENG",
    "attempts": 16,
    "activations": 16,
    "qsos": 558
  },
  {
    "reference": "GB-0207",
    "name": "Stour Estuary and Orwell Estuaries Special Protected Area",
    "latitude": 51.9542,
    "longitude": 1.15722,
    "grid": "JO01nw",
    "locationDesc": "GB-ENG",
    "attempts": 12,
    "activations": 11,
    "qsos": 377
  },
  {
    "reference": "GB-0208",
    "name": "Yorkshire Dales National Park",
    "latitude": 54.1922,
    "longitude": -2.16444,
    "grid": "IO84we",
    "locationDesc": "GB-ENG",
    "attempts": 115,
    "activations": 98,
    "qsos": 3747
  },
  {
    "reference": "GB-0209",
    "name": "Northumbrian Coast SPA - Durham Coast National Nature Reserve",
    "latitude": 54.7892,
    "longitude": -1.31223,
    "grid": "IO94is",
    "locationDesc": "GB-ENG",
    "attempts": 47,
    "activations": 47,
    "qsos": 3974
  },
  {
    "reference": "GB-0210",
    "name": "Northumberland National Park",
    "latitude": 55.3258,
    "longitude": -2.25607,
    "grid": "IO85uh",
    "locationDesc": "GB-ENG",
    "attempts": 44,
    "activations": 42,
    "qsos": 1868
  },
  {
    "reference": "GB-0211",
    "name": "Dorset Heathlands - Upton Heath Nature Reserve",
    "latitude": 50.745,
    "longitude": -2.02272,
    "grid": "IO80xr",
    "locationDesc": "GB-ENG",
    "attempts": 11,
    "activations": 11,
    "qsos": 265
  },
  {
    "reference": "GB-0212",
    "name": "English Riviera Geopark",
    "latitude": 50.4392,
    "longitude": -3.55827,
    "grid": "IO80fk",
    "locationDesc": "GB-ENG",
    "attempts": 30,
    "activations": 30,
    "qsos": 3110
  },
  {
    "reference": "GB-0213",
    "name": "Blean Woods RSPB Reserve",
    "latitude": 51.2945,
    "longitude": 1.04211,
    "grid": "JO01mh",
    "locationDesc": "GB-ENG",
    "attempts": 4,
    "activations": 4,
    "qsos": 117
  },
  {
    "reference": "GB-0214",
    "name": "Alde-Ore Estuary SPA - Havergate Island RSPB Reserve",
    "latitude": 52.0736,
    "longitude": 1.52593,
    "grid": "JO02sb",
    "locationDesc": "GB-ENG",
    "attempts": 0,
    "activations": 0,
    "qsos": 0
  },
  {
    "reference": "GB-0215",
    "name": "Dersingham Bog National Nature Reserve",
    "latitude": 52.8315,
    "longitude": 0.483293,
    "grid": "JO02ft",
    "locationDesc": "GB-ENG",
    "attempts": 5,
    "activations": 5,
    "qsos": 479
  },
  {
    "reference": "GB-0216",
    "name": "Aylesbeare Common RSPB Reserve",
    "latitude": 50.7065,
    "longitude": -3.32886,
    "grid": "IO80iq",
    "locationDesc": "GB-ENG",
    "attempts": 31,
    "activations": 31,
    "qsos": 698
  },
  {
    "reference": "GB-0217",
    "name": "Marazion Marsh RSPB Reserve",
    "latitude": 50.1285,
    "longitude": -5.48512,
    "grid": "IO70gd",
    "locationDesc": "GB-ENG",
    "attempts": 9,
    "activations": 8,
    "qsos": 218
  },
  {
    "reference": "GB-0218",
    "name": "Church Wood RSPB Reserve",
    "latitude": 51.5791,
    "longitude": -0.602064,
    "grid": "IO91qn",
    "locationDesc": "GB-ENG",
    "attempts": 3,
    "activations": 3,
    "qsos": 233
  },
  {
    "reference": "GB-0219",
    "name": "Forest of Bowland National Landscape",
    "latitude": 54.0156,
    "longitude": -2.47113,
    "grid": "IO84sa",
    "locationDesc": "GB-ENG",
    "attempts": 92,
    "activations": 69,
    "qsos": 3149
  },
  {
    "reference": "GB-0221",
    "name": "The Stiperstones and The Hollies SAC Conservation Reserve",
    "latitude": 52.5737,
    "longitude": -2.93199,
    "grid": "IO82mn",
    "locationDesc": "GB-ENG",
    "attempts": 12,
    "activations": 8,
    "qsos": 390
  },
  {
    "reference": "GB-0222",
    "name": "Parsonage Down National Nature Reserve",
    "latitude": 51.1785,
    "longitude": -1.93774,
    "grid": "IO91ae",
    "locationDesc": "GB-ENG",
    "attempts": 4,
    "activations": 3,
    "qsos": 269
  },
  {
    "reference": "GB-0223",
    "name": "Dearne Valley - Gypsy Marsh RSPB Reserve",
    "latitude": 53.5171,
    "longitude": -1.36881,
    "grid": "IO93hm",
    "locationDesc": "GB-ENG",
    "attempts": 6,
    "activations": 5,
    "qsos": 226
  },
  {
    "reference": "GB-0224",
    "name": "Howardian Hills National Landscape",
    "latitude": 54.1567,
    "longitude": -0.998961,
    "grid": "IO94md",
    "locationDesc": "GB-ENG",
    "attempts": 43,
    "activations": 42,
    "qsos": 1918
  },
  {
    "reference": "GB-0225",
    "name": "Isle of Wight - Newtown Harbour National Nature Reserve",
    "latitude": 50.718,
    "longitude": -1.40778,
    "grid": "IO90hr",
    "locationDesc": "GB-ENG",
    "attempts": 6,
    "activations": 6,
    "qsos": 166
  },
  {
    "reference": "GB-0226",
    "name": "Dungeness RSPB Reserve",
    "latitude": 50.9287,
    "longitude": 0.951653,
    "grid": "JO00lw",
    "locationDesc": "GB-ENG",
    "attempts": 3,
    "activations": 1,
    "qsos": 37
  },
  {
    "reference": "GB-0227",
    "name": "Arun Valley SPA (including Pulborough Brooks RSPB) Protected Area",
    "latitude": 50.9375,
    "longitude": -0.493467,
    "grid": "IO90sw",
    "locationDesc": "GB-ENG",
    "attempts": 6,
    "activations": 6,
    "qsos": 181
  },
  {
    "reference": "GB-0228",
    "name": "Mersey Estuary SPA/SAC/Ramsar (and RSPB) Protected Area",
    "latitude": 53.3104,
    "longitude": -2.81393,
    "grid": "IO83oh",
    "locationDesc": "GB-ENG",
    "attempts": 43,
    "activations": 42,
    "qsos": 1629
  },
  {
    "reference": "GB-0229",
    "name": "Forge Valley Woods National Nature Reserve",
    "latitude": 54.2657,
    "longitude": -0.490724,
    "grid": "IO94sg",
    "locationDesc": "GB-ENG",
    "attempts": 15,
    "activations": 14,
    "qsos": 403
  },
  {
    "reference": "GB-0230",
    "name": "Abberton Reservoir SPA/RAMSAR Protected Area",
    "latitude": 51.8285,
    "longitude": 0.872444,
    "grid": "JO01kt",
    "locationDesc": "GB-ENG",
    "attempts": 9,
    "activations": 7,
    "qsos": 115
  },
  {
    "reference": "GB-0231",
    "name": "South Devon National Landscape",
    "latitude": 50.2646,
    "longitude": -3.80017,
    "grid": "IO80cg",
    "locationDesc": "GB-ENG",
    "attempts": 93,
    "activations": 91,
    "qsos": 9079
  },
  {
    "reference": "GB-0232",
    "name": "Northward Hill RSPB Reserve",
    "latitude": 51.4586,
    "longitude": 0.544037,
    "grid": "JO01gl",
    "locationDesc": "GB-ENG",
    "attempts": 1,
    "activations": 1,
    "qsos": 34
  },
  {
    "reference": "GB-0233",
    "name": "Strumpshaw Fen RSPB Reserve",
    "latitude": 52.6067,
    "longitude": 1.45693,
    "grid": "JO02ro",
    "locationDesc": "GB-ENG",
    "attempts": 5,
    "activations": 5,
    "qsos": 319
  },
  {
    "reference": "GB-0234",
    "name": "Isle of Wight National Landscape",
    "latitude": 50.6619,
    "longitude": -1.42475,
    "grid": "IO90gp",
    "locationDesc": "GB-ENG",
    "attempts": 51,
    "activations": 49,
    "qsos": 1731
  },
  {
    "reference": "GB-0235",
    "name": "Sefton Coast SAC Conservation Reserve",
    "latitude": 53.4785,
    "longitude": -3.04169,
    "grid": "IO83ll",
    "locationDesc": "GB-ENG",
    "attempts": 32,
    "activations": 30,
    "qsos": 1364
  },
  {
    "reference": "GB-0236",
    "name": "Exmoor National Park",
    "latitude": 51.0357,
    "longitude": -3.56471,
    "grid": "IO81fa",
    "locationDesc": "GB-ENG",
    "attempts": 47,
    "activations": 46,
    "qsos": 2452
  },
  {
    "reference": "GB-0237",
    "name": "Broadland SPA - How Hill National Nature Reserve",
    "latitude": 52.7178,
    "longitude": 1.50318,
    "grid": "JO02sr",
    "locationDesc": "GB-ENG",
    "attempts": 2,
    "activations": 2,
    "qsos": 276
  },
  {
    "reference": "GB-0238",
    "name": "Broadland SPA - Martham Broad National Nature Reserve",
    "latitude": 52.7247,
    "longitude": 1.63851,
    "grid": "JO02tr",
    "locationDesc": "GB-ENG",
    "attempts": 1,
    "activations": 1,
    "qsos": 418
  },
  {
    "reference": "GB-0239",
    "name": "Bedford Purlieus National Nature Reserve",
    "latitude": 52.5922,
    "longitude": -0.467372,
    "grid": "IO92so",
    "locationDesc": "GB-ENG",
    "attempts": 9,
    "activations": 9,
    "qsos": 251
  },
  {
    "reference": "GB-0240",
    "name": "Haweswater RSPB Reserve",
    "latitude": 54.5309,
    "longitude": -2.75926,
    "grid": "IO84om",
    "locationDesc": "GB-ENG",
    "attempts": 4,
    "activations": 4,
    "qsos": 90
  },
  {
    "reference": "GB-0241",
    "name": "Teesmouth & Cleveland Coast SPA - Saltholme RSPB Reserve",
    "latitude": 54.6014,
    "longitude": -1.22264,
    "grid": "IO94jo",
    "locationDesc": "GB-ENG",
    "attempts": 27,
    "activations": 26,
    "qsos": 2341
  },
  {
    "reference": "GB-0242",
    "name": "Mid Essex Coast SPA - Colne Estuary NNR - Brightlingsea Coast Protected Area",
    "latitude": 51.8047,
    "longitude": 1.00857,
    "grid": "JO01mt",
    "locationDesc": "GB-ENG",
    "attempts": 13,
    "activations": 10,
    "qsos": 291
  },
  {
    "reference": "GB-0243",
    "name": "Wealden Heaths SPA - Devil's Punch Bowl Site of Significant Scientific Interest",
    "latitude": 51.1168,
    "longitude": -0.71723,
    "grid": "IO91pc",
    "locationDesc": "GB-ENG",
    "attempts": 8,
    "activations": 8,
    "qsos": 347
  },
  {
    "reference": "GB-0244",
    "name": "Gordano Valley National Nature Reserve",
    "latitude": 51.4531,
    "longitude": -2.81504,
    "grid": "IO81ok",
    "locationDesc": "GB-ENG",
    "attempts": 7,
    "activations": 7,
    "qsos": 228
  },
  {
    "reference": "GB-0245",
    "name": "Otmoor RSPB Reserve",
    "latitude": 51.8095,
    "longitude": -1.17472,
    "grid": "IO91jt",
    "locationDesc": "GB-ENG",
    "attempts": 3,
    "activations": 3,
    "qsos": 361
  },
  {
    "reference": "GB-0246",
    "name": "Wealden Heaths SPA - Woolmer Forest Site of Significant Scientific Interest",
    "latitude": 51.0857,
    "longitude": -0.865173,
    "grid": "IO91nc",
    "locationDesc": "GB-ENG",
    "attempts": 5,
    "activations": 5,
    "qsos": 259
  },
  {
    "reference": "GB-0247",
    "name": "Kent Downs National Landscape",
    "latitude": 51.1374,
    "longitude": 0.998432,
    "grid": "JO01ld",
    "locationDesc": "GB-ENG",
    "attempts": 10,
    "activations": 10,
    "qsos": 503
  },
  {
    "reference": "GB-0248",
    "name": "Thames Basin Heaths SPA - Bourley and Long Valley Protected Area",
    "latitude": 51.2673,
    "longitude": -0.80516,
    "grid": "IO91og",
    "locationDesc": "GB-ENG",
    "attempts": 4,
    "activations": 4,
    "qsos": 64
  },
  {
    "reference": "GB-0249",
    "name": "Berney Marshes & Breydon Water RSPB Reserve",
    "latitude": 52.5853,
    "longitude": 1.63717,
    "grid": "JO02to",
    "locationDesc": "GB-ENG",
    "attempts": 6,
    "activations": 5,
    "qsos": 372
  },
  {
    "reference": "GB-0250",
    "name": "Somerset Levels and Moors SPA Protected Area",
    "latitude": 51.1839,
    "longitude": -2.85662,
    "grid": "IO81ne",
    "locationDesc": "GB-ENG",
    "attempts": 10,
    "activations": 10,
    "qsos": 481
  },
  {
    "reference": "GB-0251",
    "name": "Ashdown Forest SPA/SAC Protected Area",
    "latitude": 51.0727,
    "longitude": 0.043887,
    "grid": "JO01ab",
    "locationDesc": "GB-ENG",
    "attempts": 43,
    "activations": 43,
    "qsos": 2274
  },
  {
    "reference": "GB-0252",
    "name": "Bassenthwaite Lake National Nature Reserve",
    "latitude": 54.6571,
    "longitude": -3.21851,
    "grid": "IO84jp",
    "locationDesc": "GB-ENG",
    "attempts": 8,
    "activations": 8,
    "qsos": 369
  },
  {
    "reference": "GB-0253",
    "name": "Romney Marsh RSPB Reserve",
    "latitude": 50.9291,
    "longitude": 0.940123,
    "grid": "JO00lw",
    "locationDesc": "GB-ENG",
    "attempts": 3,
    "activations": 3,
    "qsos": 61
  },
  {
    "reference": "GB-0254",
    "name": "Flamborough Head and Bempton Cliffs SPA (and RSPB) Protected Area",
    "latitude": 54.1472,
    "longitude": -0.168727,
    "grid": "IO94vd",
    "locationDesc": "GB-ENG",
    "attempts": 41,
    "activations": 39,
    "qsos": 1553
  },
  {
    "reference": "GB-0255",
    "name": "Wolves Wood RSPB Reserve",
    "latitude": 52.056,
    "longitude": 0.995044,
    "grid": "JO02lb",
    "locationDesc": "GB-ENG",
    "attempts": 6,
    "activations": 6,
    "qsos": 275
  },
  {
    "reference": "GB-0256",
    "name": "North Norfolk Coast SPA - Blakeney Point National Nature Reserve",
    "latitude": 52.96,
    "longitude": 1.01142,
    "grid": "JO02mx",
    "locationDesc": "GB-ENG",
    "attempts": 34,
    "activations": 32,
    "qsos": 3231
  },
  {
    "reference": "GB-0257",
    "name": "Berwickshire & North Northumberland Shore Coast - Northumberland SAC Conservation Reserve",
    "latitude": 55.7545,
    "longitude": -1.98861,
    "grid": "IO95as",
    "locationDesc": "GB-ENG",
    "attempts": 9,
    "activations": 9,
    "qsos": 397
  },
  {
    "reference": "GB-0258",
    "name": "Martin Down National Nature Reserve",
    "latitude": 50.9749,
    "longitude": -1.94043,
    "grid": "IO90ax",
    "locationDesc": "GB-ENG",
    "attempts": 6,
    "activations": 6,
    "qsos": 180
  },
  {
    "reference": "GB-0259",
    "name": "Thames Basin Heaths SPA - Ash to Brookwood Heaths Protected Area",
    "latitude": 51.3264,
    "longitude": -0.676936,
    "grid": "IO91ph",
    "locationDesc": "GB-ENG",
    "attempts": 1,
    "activations": 1,
    "qsos": 15
  },
  {
    "reference": "GB-0260",
    "name": "Solway Mosses SAC - Campfield Marsh RSPB (inc South Solway Mosses) National Nature Reserve",
    "latitude": 54.9419,
    "longitude": -3.25384,
    "grid": "IO84iw",
    "locationDesc": "GB-ENG",
    "attempts": 8,
    "activations": 7,
    "qsos": 294
  },
  {
    "reference": "GB-0261",
    "name": "Cannock Chase National Landscape",
    "latitude": 52.75,
    "longitude": -1.99926,
    "grid": "IO92as",
    "locationDesc": "GB-ENG",
    "attempts": 213,
    "activations": 198,
    "qsos": 4804
  },
  {
    "reference": "GB-0262",
    "name": "Brigwater Bay National Nature Reserve",
    "latitude": 51.208,
    "longitude": -3.04815,
    "grid": "IO81le",
    "locationDesc": "GB-ENG",
    "attempts": 6,
    "activations": 6,
    "qsos": 449
  },
  {
    "reference": "GB-0263",
    "name": "The Broads National Park",
    "latitude": 52.6049,
    "longitude": 1.60889,
    "grid": "JO02to",
    "locationDesc": "GB-ENG",
    "attempts": 28,
    "activations": 23,
    "qsos": 2852
  },
  {
    "reference": "GB-0264",
    "name": "Cornwall National Landscape",
    "latitude": 50.2659,
    "longitude": -5.05402,
    "grid": "IO70lg",
    "locationDesc": "GB-ENG",
    "attempts": 162,
    "activations": 146,
    "qsos": 9622
  },
  {
    "reference": "GB-0265",
    "name": "South Downs National Park",
    "latitude": 50.9339,
    "longitude": -0.540592,
    "grid": "IO90rw",
    "locationDesc": "GB-ENG",
    "attempts": 294,
    "activations": 279,
    "qsos": 10182
  },
  {
    "reference": "GB-0266",
    "name": "Leighton Moss SPA (and RSPB) Protected Area",
    "latitude": 54.1684,
    "longitude": -2.80302,
    "grid": "IO84oe",
    "locationDesc": "GB-ENG",
    "attempts": 7,
    "activations": 7,
    "qsos": 529
  },
  {
    "reference": "GB-0267",
    "name": "Richmond Royal Park National Nature Reserve",
    "latitude": 51.4402,
    "longitude": -0.274495,
    "grid": "IO91uk",
    "locationDesc": "GB-ENG",
    "attempts": 12,
    "activations": 9,
    "qsos": 249
  },
  {
    "reference": "GB-0268",
    "name": "Woodwalton Fen National Nature Reserve",
    "latitude": 52.4491,
    "longitude": -0.190568,
    "grid": "IO92vk",
    "locationDesc": "GB-ENG",
    "attempts": 5,
    "activations": 5,
    "qsos": 161
  },
  {
    "reference": "GB-0269",
    "name": "Monks Wood National Nature Reserve",
    "latitude": 52.4037,
    "longitude": -0.244477,
    "grid": "IO92vj",
    "locationDesc": "GB-ENG",
    "attempts": 4,
    "activations": 4,
    "qsos": 112
  },
  {
    "reference": "GB-0270",
    "name": "Middleton Lakes RSPB Reserve",
    "latitude": 52.5819,
    "longitude": -1.71511,
    "grid": "IO92dn",
    "locationDesc": "GB-ENG",
    "attempts": 27,
    "activations": 25,
    "qsos": 899
  },
  {
    "reference": "GB-0271",
    "name": "Arnside and Silverdale National Landscape",
    "latitude": 54.1739,
    "longitude": -2.82135,
    "grid": "IO84oe",
    "locationDesc": "GB-ENG",
    "attempts": 24,
    "activations": 20,
    "qsos": 1151
  },
  {
    "reference": "GB-0272",
    "name": "Duncombe Park National Nature Reserve",
    "latitude": 54.2396,
    "longitude": -1.07105,
    "grid": "IO94lf",
    "locationDesc": "GB-ENG",
    "attempts": 6,
    "activations": 5,
    "qsos": 214
  },
  {
    "reference": "GB-0273",
    "name": "Lindisfarne (Holy Island) SPA Protected Area",
    "latitude": 55.6768,
    "longitude": -1.80359,
    "grid": "IO95cq",
    "locationDesc": "GB-ENG",
    "attempts": 15,
    "activations": 14,
    "qsos": 803
  },
  {
    "reference": "GB-0274",
    "name": "Chapel Wood RSPB Reserve",
    "latitude": 51.1499,
    "longitude": -4.16309,
    "grid": "IO71wd",
    "locationDesc": "GB-ENG",
    "attempts": 2,
    "activations": 2,
    "qsos": 86
  },
  {
    "reference": "GB-0275",
    "name": "Barnack Hills & Holes National Nature Reserve",
    "latitude": 52.6286,
    "longitude": -0.412406,
    "grid": "IO92tp",
    "locationDesc": "GB-ENG",
    "attempts": 9,
    "activations": 8,
    "qsos": 243
  },
  {
    "reference": "GB-0276",
    "name": "Freiston Shore RSPB Reserve",
    "latitude": 52.9608,
    "longitude": 0.078894,
    "grid": "JO02ax",
    "locationDesc": "GB-ENG",
    "attempts": 10,
    "activations": 10,
    "qsos": 748
  },
  {
    "reference": "GB-0277",
    "name": "Solway Coast National Landscape",
    "latitude": 54.9366,
    "longitude": -3.25394,
    "grid": "IO84iw",
    "locationDesc": "GB-ENG",
    "attempts": 25,
    "activations": 23,
    "qsos": 1893
  },
  {
    "reference": "GB-0278",
    "name": "Biggin Dale National Nature Reserve",
    "latitude": 53.1208,
    "longitude": -1.78382,
    "grid": "IO93cc",
    "locationDesc": "GB-ENG",
    "attempts": 2,
    "activations": 2,
    "qsos": 253
  },
  {
    "reference": "GB-0279",
    "name": "Ribble and Alt Estuaries SPA Protected Area",
    "latitude": 53.7077,
    "longitude": -2.95316,
    "grid": "IO83mq",
    "locationDesc": "GB-ENG",
    "attempts": 28,
    "activations": 28,
    "qsos": 1961
  },
  {
    "reference": "GB-0280",
    "name": "Coquet Island SPA (and RSPB) Protected Area",
    "latitude": 55.334,
    "longitude": -1.53829,
    "grid": "IO95fi",
    "locationDesc": "GB-ENG",
    "attempts": 0,
    "activations": 0,
    "qsos": 0
  },
  {
    "reference": "GB-0281",
    "name": "Sandwell Valley RSPB Reserve",
    "latitude": 52.5331,
    "longitude": -1.95037,
    "grid": "IO92am",
    "locationDesc": "GB-ENG",
    "attempts": 17,
    "activations": 17,
    "qsos": 856
  },
  {
    "reference": "GB-0282",
    "name": "Sandlings SPA - North Warren RSPB Reserve",
    "latitude": 52.1721,
    "longitude": 1.58897,
    "grid": "JO02te",
    "locationDesc": "GB-ENG",
    "attempts": 3,
    "activations": 3,
    "qsos": 192
  },
  {
    "reference": "GB-0283",
    "name": "Ebbor Gorge National Nature Reserve",
    "latitude": 51.2331,
    "longitude": -2.68736,
    "grid": "IO81pf",
    "locationDesc": "GB-ENG",
    "attempts": 12,
    "activations": 11,
    "qsos": 331
  },
  {
    "reference": "GB-0284",
    "name": "Titchwell Marsh RSPB Reserve",
    "latitude": 52.963,
    "longitude": 0.6041,
    "grid": "JO02hx",
    "locationDesc": "GB-ENG",
    "attempts": 5,
    "activations": 5,
    "qsos": 234
  },
  {
    "reference": "GB-0285",
    "name": "Salisbury Plain Protected Area",
    "latitude": 51.26,
    "longitude": -1.89032,
    "grid": "IO91bg",
    "locationDesc": "GB-ENG",
    "attempts": 43,
    "activations": 36,
    "qsos": 1205
  },
  {
    "reference": "GB-0286",
    "name": "Swanton Novers National Nature Reserve",
    "latitude": 52.8368,
    "longitude": 0.986979,
    "grid": "JO02lu",
    "locationDesc": "GB-ENG",
    "attempts": 0,
    "activations": 0,
    "qsos": 0
  },
  {
    "reference": "GB-0287",
    "name": "Rainham Marshes RSPB Reserve",
    "latitude": 51.4927,
    "longitude": 0.220449,
    "grid": "JO01cl",
    "locationDesc": "GB-ENG",
    "attempts": 21,
    "activations": 20,
    "qsos": 820
  },
  {
    "reference": "GB-0288",
    "name": "Stodmarsh SPA Protected Area",
    "latitude": 51.3133,
    "longitude": 1.19461,
    "grid": "JO01oh",
    "locationDesc": "GB-ENG",
    "attempts": 3,
    "activations": 3,
    "qsos": 35
  },
  {
    "reference": "GB-0289",
    "name": "Cricklade (North Meadow) National Nature Reserve",
    "latitude": 51.6505,
    "longitude": -1.86572,
    "grid": "IO91bp",
    "locationDesc": "GB-ENG",
    "attempts": 6,
    "activations": 6,
    "qsos": 387
  },
  {
    "reference": "GB-0290",
    "name": "Coombes & Churnet Valley RSPB Reserve",
    "latitude": 53.078,
    "longitude": -1.98712,
    "grid": "IO93ab",
    "locationDesc": "GB-ENG",
    "attempts": 8,
    "activations": 7,
    "qsos": 243
  },
  {
    "reference": "GB-0291",
    "name": "Paston Great Barn National Nature Reserve",
    "latitude": 52.8585,
    "longitude": 1.4472,
    "grid": "JO02ru",
    "locationDesc": "GB-ENG",
    "attempts": 4,
    "activations": 4,
    "qsos": 360
  },
  {
    "reference": "GB-0292",
    "name": "Dorset Heathlands - Hartland Moor National Nature Reserve",
    "latitude": 50.662,
    "longitude": -2.07647,
    "grid": "IO80xp",
    "locationDesc": "GB-ENG",
    "attempts": 7,
    "activations": 7,
    "qsos": 319
  },
  {
    "reference": "GB-0293",
    "name": "Lount Nature Reserve Nature Reserve",
    "latitude": 52.7637,
    "longitude": -1.40758,
    "grid": "IO92hs",
    "locationDesc": "GB-ENG",
    "attempts": 14,
    "activations": 13,
    "qsos": 461
  },
  {
    "reference": "GB-0294",
    "name": "Ruislip Woods National Nature Reserve",
    "latitude": 51.5969,
    "longitude": -0.436581,
    "grid": "IO91so",
    "locationDesc": "GB-ENG",
    "attempts": 6,
    "activations": 6,
    "qsos": 325
  },
  {
    "reference": "GB-0295",
    "name": "Wrens Nest National Nature Reserve",
    "latitude": 52.5246,
    "longitude": -2.09628,
    "grid": "IO82wm",
    "locationDesc": "GB-ENG",
    "attempts": 7,
    "activations": 7,
    "qsos": 288
  },
  {
    "reference": "GB-0296",
    "name": "Lee Valley SPA (including Rye Meads RSPB) Protected Area",
    "latitude": 51.7733,
    "longitude": 0.009493,
    "grid": "JO01as",
    "locationDesc": "GB-ENG",
    "attempts": 13,
    "activations": 12,
    "qsos": 320
  },
  {
    "reference": "GB-0297",
    "name": "East Devon National Landscape",
    "latitude": 50.7436,
    "longitude": -3.14744,
    "grid": "IO80kr",
    "locationDesc": "GB-ENG",
    "attempts": 59,
    "activations": 59,
    "qsos": 6754
  },
  {
    "reference": "GB-0298",
    "name": "Border Mires and Kielder-Butterburn SAC - Whitelee Moor National Nature Reserve",
    "latitude": 55.3256,
    "longitude": -2.47625,
    "grid": "IO85sh",
    "locationDesc": "GB-ENG",
    "attempts": 1,
    "activations": 1,
    "qsos": 92
  },
  {
    "reference": "GB-0299",
    "name": "Thames Basin Heaths SPA - Yateley Common Country Park",
    "latitude": 51.3261,
    "longitude": -0.820342,
    "grid": "IO91oh",
    "locationDesc": "GB-ENG",
    "attempts": 5,
    "activations": 4,
    "qsos": 268
  },
  {
    "reference": "GB-0300",
    "name": "Border Mires SAC - Kielder Mires National Nature Reserve",
    "latitude": 55.1071,
    "longitude": -2.48668,
    "grid": "IO85sc",
    "locationDesc": "GB-ENG",
    "attempts": 2,
    "activations": 2,
    "qsos": 108
  },
  {
    "reference": "GB-0301",
    "name": "Beacon Hill National Nature Reserve",
    "latitude": 51.0018,
    "longitude": -1.14655,
    "grid": "IO91ka",
    "locationDesc": "GB-ENG",
    "attempts": 8,
    "activations": 8,
    "qsos": 302
  },
  {
    "reference": "GB-0302",
    "name": "Derwent Gorge and Muggleswick Woods National Nature Reserve",
    "latitude": 54.8374,
    "longitude": -1.91436,
    "grid": "IO94bu",
    "locationDesc": "GB-ENG",
    "attempts": 19,
    "activations": 19,
    "qsos": 930
  },
  {
    "reference": "GB-0303",
    "name": "Barnfield Pit National Nature Reserve",
    "latitude": 51.4449,
    "longitude": 0.297954,
    "grid": "JO01dk",
    "locationDesc": "GB-ENG",
    "attempts": 2,
    "activations": 2,
    "qsos": 29
  },
  {
    "reference": "GB-0304",
    "name": "Oxford Meadows SAC Conservation Reserve",
    "latitude": 51.774,
    "longitude": -1.28568,
    "grid": "IO91is",
    "locationDesc": "GB-ENG",
    "attempts": 4,
    "activations": 3,
    "qsos": 54
  },
  {
    "reference": "GB-0305",
    "name": "Hatfield Forest National Nature Reserve",
    "latitude": 51.8598,
    "longitude": 0.229061,
    "grid": "JO01cu",
    "locationDesc": "GB-ENG",
    "attempts": 9,
    "activations": 6,
    "qsos": 376
  },
  {
    "reference": "GB-0306",
    "name": "South Essex Marshes RSPB Reserve",
    "latitude": 51.5492,
    "longitude": 0.505746,
    "grid": "JO01gn",
    "locationDesc": "GB-ENG",
    "attempts": 35,
    "activations": 35,
    "qsos": 1481
  },
  {
    "reference": "GB-0307",
    "name": "The Wash National Nature Reserve",
    "latitude": 52.8276,
    "longitude": 0.267446,
    "grid": "JO02dt",
    "locationDesc": "GB-ENG",
    "attempts": 6,
    "activations": 6,
    "qsos": 295
  },
  {
    "reference": "GB-0308",
    "name": "Chichester Harbour National Landscape",
    "latitude": 50.8052,
    "longitude": -0.861167,
    "grid": "IO90nt",
    "locationDesc": "GB-ENG",
    "attempts": 91,
    "activations": 91,
    "qsos": 4910
  },
  {
    "reference": "GB-0309",
    "name": "Thames Basin Heaths SPA - Wisley and Ockham Common SPA/SSSI Protected Area",
    "latitude": 51.3172,
    "longitude": -0.45058,
    "grid": "IO91sh",
    "locationDesc": "GB-ENG",
    "attempts": 4,
    "activations": 4,
    "qsos": 262
  },
  {
    "reference": "GB-0310",
    "name": "Breckland SPA - Brettenham Heath National Nature Reserve",
    "latitude": 52.4409,
    "longitude": 0.827436,
    "grid": "JO02jk",
    "locationDesc": "GB-ENG",
    "attempts": 4,
    "activations": 4,
    "qsos": 168
  },
  {
    "reference": "GB-0311",
    "name": "Fenn's Whixall & Bettisfield Mosses SAC (England only) Conservation Reserve",
    "latitude": 52.9201,
    "longitude": -2.75654,
    "grid": "IO82ow",
    "locationDesc": "GB-ENG",
    "attempts": 11,
    "activations": 11,
    "qsos": 593
  },
  {
    "reference": "GB-0312",
    "name": "Wat Tyler Country Park Country Park",
    "latitude": 51.5485,
    "longitude": 0.505355,
    "grid": "JO01gn",
    "locationDesc": "GB-ENG",
    "attempts": 35,
    "activations": 35,
    "qsos": 1506
  },
  {
    "reference": "GB-0313",
    "name": "Golitha Falls National Nature Reserve",
    "latitude": 50.4919,
    "longitude": -4.50265,
    "grid": "IO70rl",
    "locationDesc": "GB-ENG",
    "attempts": 7,
    "activations": 6,
    "qsos": 296
  },
  {
    "reference": "GB-0314",
    "name": "Northumbrian Coast SPA - Whitley Bay Coast Protected Area",
    "latitude": 55.0506,
    "longitude": -1.44847,
    "grid": "IO95gb",
    "locationDesc": "GB-ENG",
    "attempts": 13,
    "activations": 13,
    "qsos": 747
  },
  {
    "reference": "GB-0315",
    "name": "Minsmere-Walberswick SPA - Minsmere RSPB Reserve",
    "latitude": 52.2474,
    "longitude": 1.61932,
    "grid": "JO02tf",
    "locationDesc": "GB-ENG",
    "attempts": 5,
    "activations": 5,
    "qsos": 260
  },
  {
    "reference": "GB-0316",
    "name": "Peak District Dales SAC - Derbyshire Dales NNR - Cressbrook Dale Site of Significant Scientific Interest",
    "latitude": 53.2584,
    "longitude": -1.74383,
    "grid": "IO93dg",
    "locationDesc": "GB-ENG",
    "attempts": 5,
    "activations": 5,
    "qsos": 140
  },
  {
    "reference": "GB-0317",
    "name": "Lydden & Tempell Ewell Downs National Nature Reserve",
    "latitude": 51.1574,
    "longitude": 1.26937,
    "grid": "JO01pd",
    "locationDesc": "GB-ENG",
    "attempts": 0,
    "activations": 0,
    "qsos": 0
  },
  {
    "reference": "GB-0318",
    "name": "East Dartmoor Woods & Heaths National Nature Reserve",
    "latitude": 50.6009,
    "longitude": -3.73449,
    "grid": "IO80do",
    "locationDesc": "GB-ENG",
    "attempts": 16,
    "activations": 14,
    "qsos": 859
  },
  {
    "reference": "GB-0319",
    "name": "Broadland SPA - Hinkling Broad National Nature Reserve",
    "latitude": 52.7386,
    "longitude": 1.57905,
    "grid": "JO02sr",
    "locationDesc": "GB-ENG",
    "attempts": 2,
    "activations": 2,
    "qsos": 541
  },
  {
    "reference": "GB-0320",
    "name": "Exe Estuary Conservation Reserve",
    "latitude": 50.6587,
    "longitude": -3.44646,
    "grid": "IO80gp",
    "locationDesc": "GB-ENG",
    "attempts": 14,
    "activations": 14,
    "qsos": 879
  },
  {
    "reference": "GB-0321",
    "name": "Quantock Hills National Landscape",
    "latitude": 51.1413,
    "longitude": -3.19745,
    "grid": "IO81jd",
    "locationDesc": "GB-ENG",
    "attempts": 20,
    "activations": 17,
    "qsos": 1172
  },
  {
    "reference": "GB-0322",
    "name": "Lundy Island National Nature Reserve",
    "latitude": 51.1763,
    "longitude": -4.66913,
    "grid": "IO71pe",
    "locationDesc": "GB-ENG",
    "attempts": 7,
    "activations": 6,
    "qsos": 231
  },
  {
    "reference": "GB-0323",
    "name": "Hayle Estuary RSPB Reserve",
    "latitude": 50.1855,
    "longitude": -5.43139,
    "grid": "IO70ge",
    "locationDesc": "GB-ENG",
    "attempts": 8,
    "activations": 7,
    "qsos": 186
  },
  {
    "reference": "GB-0324",
    "name": "Lakenheath Fen RSPB Reserve",
    "latitude": 52.4483,
    "longitude": 0.528699,
    "grid": "JO02gk",
    "locationDesc": "GB-ENG",
    "attempts": 10,
    "activations": 10,
    "qsos": 549
  },
  {
    "reference": "GB-0325",
    "name": "Peak District Dales SAC - Derbyshire Dales NNR - Monks Dale Site of Significant Scientific Interest",
    "latitude": 53.2652,
    "longitude": -1.79919,
    "grid": "IO93cg",
    "locationDesc": "GB-ENG",
    "attempts": 3,
    "activations": 3,
    "qsos": 97
  },
  {
    "reference": "GB-0326",
    "name": "Wye and Crundale Downs Conservation Reserve",
    "latitude": 51.1683,
    "longitude": 0.969853,
    "grid": "JO01le",
    "locationDesc": "GB-ENG",
    "attempts": 6,
    "activations": 6,
    "qsos": 154
  },
  {
    "reference": "GB-0327",
    "name": "East Hampshire Hangers (inc Ashford Hangers) National Nature Reserve",
    "latitude": 51.0355,
    "longitude": -0.94883,
    "grid": "IO91ma",
    "locationDesc": "GB-ENG",
    "attempts": 17,
    "activations": 17,
    "qsos": 809
  },
  {
    "reference": "GB-0328",
    "name": "Suffolk Coast and Heaths National Landscape",
    "latitude": 52.088,
    "longitude": 1.417,
    "grid": "JO02rc",
    "locationDesc": "GB-ENG",
    "attempts": 29,
    "activations": 29,
    "qsos": 4086
  },
  {
    "reference": "GB-0329",
    "name": "Hazeley Heath RSPB Reserve",
    "latitude": 51.3174,
    "longitude": -0.916932,
    "grid": "IO91mh",
    "locationDesc": "GB-ENG",
    "attempts": 4,
    "activations": 4,
    "qsos": 127
  },
  {
    "reference": "GB-0330",
    "name": "Hardington Moor National Nature Reserve",
    "latitude": 50.913,
    "longitude": -2.69119,
    "grid": "IO80pv",
    "locationDesc": "GB-ENG",
    "attempts": 2,
    "activations": 2,
    "qsos": 39
  },
  {
    "reference": "GB-0331",
    "name": "Dearne Valley - Bolton Ings RSPB Reserve",
    "latitude": 53.5134,
    "longitude": -1.35982,
    "grid": "IO93hm",
    "locationDesc": "GB-ENG",
    "attempts": 8,
    "activations": 7,
    "qsos": 202
  },
  {
    "reference": "GB-0332",
    "name": "South West London Waterbodies Protected Area",
    "latitude": 51.4495,
    "longitude": -0.496871,
    "grid": "IO91sk",
    "locationDesc": "GB-ENG",
    "attempts": 2,
    "activations": 2,
    "qsos": 309
  },
  {
    "reference": "GB-0333",
    "name": "Alde-Ore Estuary SPA - Orfordness National Nature Reserve",
    "latitude": 52.0834,
    "longitude": 1.55938,
    "grid": "JO02sc",
    "locationDesc": "GB-ENG",
    "attempts": 3,
    "activations": 3,
    "qsos": 483
  },
  {
    "reference": "GB-0334",
    "name": "Wealden Heaths SPA - Broxhead and Kingsley Commons Protected Area",
    "latitude": 51.1311,
    "longitude": -0.85682,
    "grid": "IO91nd",
    "locationDesc": "GB-ENG",
    "attempts": 2,
    "activations": 2,
    "qsos": 24
  },
  {
    "reference": "GB-0335",
    "name": "Huntspill River National Nature Reserve",
    "latitude": 51.1896,
    "longitude": -2.94975,
    "grid": "IO81me",
    "locationDesc": "GB-ENG",
    "attempts": 14,
    "activations": 13,
    "qsos": 379
  },
  {
    "reference": "GB-0336",
    "name": "Fen Drayton Lakes RSPB Reserve",
    "latitude": 52.3078,
    "longitude": -0.032313,
    "grid": "IO92xh",
    "locationDesc": "GB-ENG",
    "attempts": 14,
    "activations": 13,
    "qsos": 684
  },
  {
    "reference": "GB-0337",
    "name": "Thames Basin Heaths SPA -  Castle Bottom National Nature Reserve",
    "latitude": 51.3316,
    "longitude": -0.859777,
    "grid": "IO91nh",
    "locationDesc": "GB-ENG",
    "attempts": 2,
    "activations": 2,
    "qsos": 47
  },
  {
    "reference": "GB-0338",
    "name": "Mid Essex Coast SPA - Dengie National Nature Reserve",
    "latitude": 51.6991,
    "longitude": 0.943424,
    "grid": "JO01lq",
    "locationDesc": "GB-ENG",
    "attempts": 4,
    "activations": 4,
    "qsos": 207
  },
  {
    "reference": "GB-0339",
    "name": "Norfolk Valley Fens Conservation Reserve",
    "latitude": 52.5686,
    "longitude": 0.597391,
    "grid": "JO02hn",
    "locationDesc": "GB-ENG",
    "attempts": 6,
    "activations": 6,
    "qsos": 597
  },
  {
    "reference": "GB-0341",
    "name": "Broadland SPA - Ant Broads & Marshes National Nature Reserve",
    "latitude": 52.7377,
    "longitude": 1.49655,
    "grid": "JO02rr",
    "locationDesc": "GB-ENG",
    "attempts": 1,
    "activations": 1,
    "qsos": 94
  },
  {
    "reference": "GB-0342",
    "name": "Westhay Moor National Nature Reserve",
    "latitude": 51.1902,
    "longitude": -2.77925,
    "grid": "IO81oe",
    "locationDesc": "GB-ENG",
    "attempts": 5,
    "activations": 5,
    "qsos": 68
  },
  {
    "reference": "GB-0343",
    "name": "Castle Eden Dene National Nature Reserve",
    "latitude": 54.7476,
    "longitude": -1.33713,
    "grid": "IO94hr",
    "locationDesc": "GB-ENG",
    "attempts": 29,
    "activations": 29,
    "qsos": 2344
  },
  {
    "reference": "GB-0344",
    "name": "Shortheath Common SAC Conservation Reserve",
    "latitude": 51.1262,
    "longitude": -0.894673,
    "grid": "IO91nd",
    "locationDesc": "GB-ENG",
    "attempts": 5,
    "activations": 5,
    "qsos": 242
  },
  {
    "reference": "GB-0345",
    "name": "Aqualate Mere National Nature Reserve",
    "latitude": 52.7798,
    "longitude": -2.31629,
    "grid": "IO82us",
    "locationDesc": "GB-ENG",
    "attempts": 5,
    "activations": 4,
    "qsos": 166
  },
  {
    "reference": "GB-0346",
    "name": "Mid Essex Coast SPA - Blackwater Estuary National Nature Reserve",
    "latitude": 51.7719,
    "longitude": 0.860658,
    "grid": "JO01ks",
    "locationDesc": "GB-ENG",
    "attempts": 3,
    "activations": 3,
    "qsos": 62
  },
  {
    "reference": "GB-0347",
    "name": "Isles of Scilly National Landscape",
    "latitude": 49.9225,
    "longitude": -6.29691,
    "grid": "IN69uw",
    "locationDesc": "GB-ENG",
    "attempts": 35,
    "activations": 33,
    "qsos": 3370
  },
  {
    "reference": "GB-0348",
    "name": "Ainsdale Sand Dunes National Nature Reserve",
    "latitude": 53.5862,
    "longitude": -3.07604,
    "grid": "IO83lo",
    "locationDesc": "GB-ENG",
    "attempts": 12,
    "activations": 10,
    "qsos": 433
  },
  {
    "reference": "GB-0349",
    "name": "Dartmoor National Park",
    "latitude": 50.577,
    "longitude": -3.76792,
    "grid": "IO80cn",
    "locationDesc": "GB-ENG",
    "attempts": 230,
    "activations": 182,
    "qsos": 8325
  },
  {
    "reference": "GB-0350",
    "name": "Barton Hills National Nature Reserve",
    "latitude": 51.9587,
    "longitude": -0.423001,
    "grid": "IO91sx",
    "locationDesc": "GB-ENG",
    "attempts": 7,
    "activations": 6,
    "qsos": 248
  },
  {
    "reference": "GB-0351",
    "name": "Thames Basin Heaths SPA - Bramshill Site of Significant Scientific Interest",
    "latitude": 51.3528,
    "longitude": -0.922013,
    "grid": "IO91mi",
    "locationDesc": "GB-ENG",
    "attempts": 4,
    "activations": 4,
    "qsos": 71
  },
  {
    "reference": "GB-0352",
    "name": "Shapwick Heath National Nature Reserve",
    "latitude": 51.1604,
    "longitude": -2.81895,
    "grid": "IO81od",
    "locationDesc": "GB-ENG",
    "attempts": 6,
    "activations": 6,
    "qsos": 183
  },
  {
    "reference": "GB-0353",
    "name": "Northumbrian Coast SPA - Hadston Bondi and Silva Carrs etc Protected Area",
    "latitude": 55.3121,
    "longitude": -1.54987,
    "grid": "IO95fh",
    "locationDesc": "GB-ENG",
    "attempts": 5,
    "activations": 4,
    "qsos": 386
  },
  {
    "reference": "GB-0354",
    "name": "Portsmouth Harbour Protected Area",
    "latitude": 50.8243,
    "longitude": -1.12086,
    "grid": "IO90kt",
    "locationDesc": "GB-ENG",
    "attempts": 30,
    "activations": 29,
    "qsos": 1924
  },
  {
    "reference": "GB-0355",
    "name": "King's Wood (Heath & Reach) and Rushmere National Nature Reserve",
    "latitude": 51.9597,
    "longitude": -0.651585,
    "grid": "IO91qx",
    "locationDesc": "GB-ENG",
    "attempts": 17,
    "activations": 16,
    "qsos": 561
  },
  {
    "reference": "GB-0356",
    "name": "Malvern Hills National Landscape",
    "latitude": 52.1048,
    "longitude": -2.33844,
    "grid": "IO82tc",
    "locationDesc": "GB-ENG",
    "attempts": 58,
    "activations": 41,
    "qsos": 1069
  },
  {
    "reference": "GB-0357",
    "name": "Cliffe Pools RSPB Reserve",
    "latitude": 51.4669,
    "longitude": 0.477017,
    "grid": "JO01fl",
    "locationDesc": "GB-ENG",
    "attempts": 4,
    "activations": 3,
    "qsos": 163
  },
  {
    "reference": "GB-0358",
    "name": "Isle of Wight - Brading Marshes RSPB Reserve",
    "latitude": 50.6808,
    "longitude": -1.13033,
    "grid": "IO90kq",
    "locationDesc": "GB-ENG",
    "attempts": 2,
    "activations": 2,
    "qsos": 22
  },
  {
    "reference": "GB-0360",
    "name": "Anglers Country Park",
    "latitude": 53.6331,
    "longitude": -1.43381,
    "grid": "IO93gp",
    "locationDesc": "GB-ENG",
    "attempts": 7,
    "activations": 5,
    "qsos": 121
  },
  {
    "reference": "GB-0361",
    "name": "Angus Buchanan Fields Country Park",
    "latitude": 51.7932,
    "longitude": -2.62432,
    "grid": "IO81qt",
    "locationDesc": "GB-ENG",
    "attempts": 2,
    "activations": 1,
    "qsos": 14
  },
  {
    "reference": "GB-0362",
    "name": "Avon Heath Country Park",
    "latitude": 50.8256,
    "longitude": -1.82989,
    "grid": "IO90ct",
    "locationDesc": "GB-ENG",
    "attempts": 11,
    "activations": 9,
    "qsos": 196
  },
  {
    "reference": "GB-0363",
    "name": "Badminton House and Estate Country Park",
    "latitude": 51.5429,
    "longitude": -2.28321,
    "grid": "IO81un",
    "locationDesc": "GB-ENG",
    "attempts": 9,
    "activations": 9,
    "qsos": 150
  },
  {
    "reference": "GB-0364",
    "name": "Bantock House And Park Country Park",
    "latitude": 52.5799,
    "longitude": -2.15381,
    "grid": "IO82wn",
    "locationDesc": "GB-ENG",
    "attempts": 4,
    "activations": 4,
    "qsos": 108
  },
  {
    "reference": "GB-0365",
    "name": "Billesley Common Country Park",
    "latitude": 52.4262,
    "longitude": -1.87559,
    "grid": "IO92bk",
    "locationDesc": "GB-ENG",
    "attempts": 3,
    "activations": 2,
    "qsos": 61
  },
  {
    "reference": "GB-0366",
    "name": "Black Park Country Park",
    "latitude": 51.5391,
    "longitude": -0.552479,
    "grid": "IO91rm",
    "locationDesc": "GB-ENG",
    "attempts": 6,
    "activations": 6,
    "qsos": 136
  },
  {
    "reference": "GB-0367",
    "name": "Blackleach Country Park",
    "latitude": 53.5303,
    "longitude": -2.39805,
    "grid": "IO83tm",
    "locationDesc": "GB-ENG",
    "attempts": 11,
    "activations": 11,
    "qsos": 310
  },
  {
    "reference": "GB-0368",
    "name": "Boggart Hole Clough Country Park",
    "latitude": 53.5226,
    "longitude": -2.19867,
    "grid": "IO83vm",
    "locationDesc": "GB-ENG",
    "attempts": 8,
    "activations": 8,
    "qsos": 226
  },
  {
    "reference": "GB-0369",
    "name": "Bold Forest Park Country Park",
    "latitude": 53.4373,
    "longitude": -2.68432,
    "grid": "IO83pk",
    "locationDesc": "GB-ENG",
    "attempts": 67,
    "activations": 66,
    "qsos": 2125
  },
  {
    "reference": "GB-0370",
    "name": "Brierley Forest Country Park",
    "latitude": 53.1303,
    "longitude": -1.29619,
    "grid": "IO93id",
    "locationDesc": "GB-ENG",
    "attempts": 11,
    "activations": 11,
    "qsos": 186
  },
  {
    "reference": "GB-0371",
    "name": "Brockwell Park Country Park",
    "latitude": 51.4505,
    "longitude": -0.10532,
    "grid": "IO91wk",
    "locationDesc": "GB-ENG",
    "attempts": 4,
    "activations": 3,
    "qsos": 61
  },
  {
    "reference": "GB-0372",
    "name": "Brownsea Island Country Park",
    "latitude": 50.6908,
    "longitude": -1.96529,
    "grid": "IO90aq",
    "locationDesc": "GB-ENG",
    "attempts": 3,
    "activations": 3,
    "qsos": 100
  },
  {
    "reference": "GB-0373",
    "name": "Burbage Common Visitor Centre Country Park",
    "latitude": 52.551,
    "longitude": -1.34342,
    "grid": "IO92hn",
    "locationDesc": "GB-ENG",
    "attempts": 6,
    "activations": 6,
    "qsos": 149
  },
  {
    "reference": "GB-0374",
    "name": "Cliveden House and Estate Country Park",
    "latitude": 51.5588,
    "longitude": -0.688178,
    "grid": "IO91pn",
    "locationDesc": "GB-ENG",
    "attempts": 4,
    "activations": 4,
    "qsos": 128
  },
  {
    "reference": "GB-0375",
    "name": "Clumber Country Park",
    "latitude": 53.2704,
    "longitude": -1.07308,
    "grid": "IO93lg",
    "locationDesc": "GB-ENG",
    "attempts": 54,
    "activations": 51,
    "qsos": 1002
  },
  {
    "reference": "GB-0376",
    "name": "Cobb House Country Park",
    "latitude": 52.2251,
    "longitude": -2.32765,
    "grid": "IO82uf",
    "locationDesc": "GB-ENG",
    "attempts": 2,
    "activations": 2,
    "qsos": 46
  },
  {
    "reference": "GB-0377",
    "name": "Conningbrook Lakes Country Park",
    "latitude": 51.1532,
    "longitude": 0.903518,
    "grid": "JO01kd",
    "locationDesc": "GB-ENG",
    "attempts": 8,
    "activations": 5,
    "qsos": 114
  },
  {
    "reference": "GB-0378",
    "name": "Coronation Park Country Park",
    "latitude": 53.4364,
    "longitude": -1.53696,
    "grid": "IO93fk",
    "locationDesc": "GB-ENG",
    "attempts": 2,
    "activations": 2,
    "qsos": 31
  },
  {
    "reference": "GB-0379",
    "name": "Crowborough Country Park",
    "latitude": 51.0474,
    "longitude": 0.182307,
    "grid": "JO01cb",
    "locationDesc": "GB-ENG",
    "attempts": 3,
    "activations": 3,
    "qsos": 51
  },
  {
    "reference": "GB-0380",
    "name": "Cusworth Hall Museum Country Park",
    "latitude": 53.5293,
    "longitude": -1.18099,
    "grid": "IO93jm",
    "locationDesc": "GB-ENG",
    "attempts": 17,
    "activations": 17,
    "qsos": 629
  },
  {
    "reference": "GB-0381",
    "name": "Dearne Valley Country Park",
    "latitude": 53.5546,
    "longitude": -1.45413,
    "grid": "IO93gn",
    "locationDesc": "GB-ENG",
    "attempts": 3,
    "activations": 3,
    "qsos": 101
  },
  {
    "reference": "GB-0382",
    "name": "Deer Park Wood Country Park",
    "latitude": 51.7868,
    "longitude": -1.5136,
    "grid": "IO91fs",
    "locationDesc": "GB-ENG",
    "attempts": 3,
    "activations": 3,
    "qsos": 56
  },
  {
    "reference": "GB-0383",
    "name": "Dinton Pastures Country Park",
    "latitude": 51.44,
    "longitude": -0.87274,
    "grid": "IO91nk",
    "locationDesc": "GB-ENG",
    "attempts": 7,
    "activations": 6,
    "qsos": 125
  },
  {
    "reference": "GB-0384",
    "name": "Eastbrookend Country Park",
    "latitude": 51.5563,
    "longitude": 0.174081,
    "grid": "JO01cn",
    "locationDesc": "GB-ENG",
    "attempts": 22,
    "activations": 22,
    "qsos": 725
  },
  {
    "reference": "GB-0385",
    "name": "Elvaston Castle Country Park",
    "latitude": 52.8933,
    "longitude": -1.39675,
    "grid": "IO92hv",
    "locationDesc": "GB-ENG",
    "attempts": 12,
    "activations": 12,
    "qsos": 271
  },
  {
    "reference": "GB-0386",
    "name": "Ely Park Country Park",
    "latitude": 52.3987,
    "longitude": 0.276689,
    "grid": "JO02dj",
    "locationDesc": "GB-ENG",
    "attempts": 6,
    "activations": 5,
    "qsos": 115
  },
  {
    "reference": "GB-0387",
    "name": "Etherow Country Park",
    "latitude": 53.4147,
    "longitude": -2.0536,
    "grid": "IO83xj",
    "locationDesc": "GB-ENG",
    "attempts": 12,
    "activations": 11,
    "qsos": 241
  },
  {
    "reference": "GB-0388",
    "name": "Fairlands Valley Park Country Park",
    "latitude": 51.9017,
    "longitude": -0.178725,
    "grid": "IO91vv",
    "locationDesc": "GB-ENG",
    "attempts": 6,
    "activations": 6,
    "qsos": 111
  },
  {
    "reference": "GB-0389",
    "name": "Frickley Country Park",
    "latitude": 53.5853,
    "longitude": -1.28984,
    "grid": "IO93io",
    "locationDesc": "GB-ENG",
    "attempts": 2,
    "activations": 1,
    "qsos": 71
  },
  {
    "reference": "GB-0390",
    "name": "Fryent Country Park",
    "latitude": 51.5769,
    "longitude": -0.275037,
    "grid": "IO91un",
    "locationDesc": "GB-ENG",
    "attempts": 9,
    "activations": 5,
    "qsos": 181
  },
  {
    "reference": "GB-0391",
    "name": "Granville Country Park",
    "latitude": 52.7098,
    "longitude": -2.41648,
    "grid": "IO82tr",
    "locationDesc": "GB-ENG",
    "attempts": 5,
    "activations": 5,
    "qsos": 109
  },
  {
    "reference": "GB-0392",
    "name": "Grassmoor Country Park",
    "latitude": 53.2007,
    "longitude": -1.38476,
    "grid": "IO93he",
    "locationDesc": "GB-ENG",
    "attempts": 15,
    "activations": 15,
    "qsos": 292
  },
  {
    "reference": "GB-0393",
    "name": "Hardwick Ponds Country Park",
    "latitude": 53.1698,
    "longitude": -1.32092,
    "grid": "IO93ie",
    "locationDesc": "GB-ENG",
    "attempts": 45,
    "activations": 45,
    "qsos": 1024
  },